$GPGGA,1494244.61,4334.842000,N,14200.124980,E,1,08,0.9,50.00,M,28.4,M,,,*78
$GPZDA,1494244.61,01,10,2013,00,00*5B
$GPGGA,1494244.62,4334.842000,N,14200.124980,E,1,08,0.9,50.00,M,28.4,M,,,*7B
$GPZDA,1494244.62,01,10,2013,00,00*58
$GPGGA,1494244.63,4334.842000,N,14200.124980,E,1,08,0.9,50.00,M,28.4,M,,,*7A
$GPZDA,1494244.63,01,10,2013,00,00*59
$GPGGA,1494244.64,4334.842000,N,14200.124980,E,1,08,0.9,50.00,M,28.4,M,,,*7D
$GPZDA,1494244.64,01,10,2013,00,00*5E
$GPGGA,1494244.65,4334.842000,N,14200.124980,E,1,08,0.9,50.00,M,28.4,M,,,*7C
$GPZDA,1494244.65,01,10,2013,00,00*5F
$GPGGA,1494244.66,4334.842000,N,14200.124981,E,1,08,0.9,50.00,M,28.4,M,,,*7E
$GPZDA,1494244.66,01,10,2013,00,00*5C
$GPGGA,1494244.67,4334.842000,N,14200.124981,E,1,08,0.9,50.00,M,28.4,M,,,*7F
$GPZDA,1494244.67,01,10,2013,00,00*5D
$GPGGA,1494244.68,4334.842000,N,14200.124981,E,1,08,0.9,50.00,M,28.4,M,,,*70
$GPZDA,1494244.68,01,10,2013,00,00*52
$GPGGA,1494244.69,4334.842000,N,14200.124981,E,1,08,0.9,50.00,M,28.4,M,,,*71
$GPZDA,1494244.69,01,10,2013,00,00*53
$GPGGA,1494244.70,4334.842000,N,14200.124982,E,1,08,0.9,50.00,M,28.4,M,,,*7A
$GPZDA,1494244.70,01,10,2013,00,00*5B
$GPGGA,1494244.71,4334.842000,N,14200.124982,E,1,08,0.9,50.00,M,28.4,M,,,*7B
$GPZDA,1494244.71,01,10,2013,00,00*5A
$GPGGA,1494244.72,4334.841999,N,14200.124982,E,1,08,0.9,50.00,M,28.4,M,,,*72
$GPZDA,1494244.72,01,10,2013,00,00*59
$GPGGA,1494244.73,4334.841999,N,14200.124983,E,1,08,0.9,50.00,M,28.4,M,,,*72
$GPZDA,1494244.73,01,10,2013,00,00*58
$GPGGA,1494244.74,4334.841999,N,14200.124983,E,1,08,0.9,50.00,M,28.4,M,,,*75
$GPZDA,1494244.74,01,10,2013,00,00*5F
$GPGGA,1494244.75,4334.841999,N,14200.124984,E,1,08,0.9,50.00,M,28.4,M,,,*73
$GPZDA,1494244.75,01,10,2013,00,00*5E
$GPGGA,1494244.76,4334.841999,N,14200.124984,E,1,08,0.9,50.00,M,28.4,M,,,*70
$GPZDA,1494244.76,01,10,2013,00,00*5D
$GPGGA,1494244.77,4334.841999,N,14200.124985,E,1,08,0.9,50.00,M,28.4,M,,,*70
$GPZDA,1494244.77,01,10,2013,00,00*5C
$GPGGA,1494244.78,4334.841999,N,14200.124985,E,1,08,0.9,49.99,M,28.4,M,,,*77
$GPZDA,1494244.78,01,10,2013,00,00*53
$GPGGA,1494244.79,4334.841999,N,14200.124986,E,1,08,0.9,49.99,M,28.4,M,,,*75
$GPZDA,1494244.79,01,10,2013,00,00*52
$GPGGA,1494244.80,4334.841999,N,14200.124986,E,1,08,0.9,49.99,M,28.4,M,,,*73
$GPZDA,1494244.80,01,10,2013,00,00*54
$GPGGA,1494244.81,4334.841998,N,14200.124987,E,1,08,0.9,49.99,M,28.4,M,,,*72
$GPZDA,1494244.81,01,10,2013,00,00*55
$GPGGA,1494244.82,4334.841998,N,14200.124988,E,1,08,0.9,49.99,M,28.4,M,,,*7E
$GPZDA,1494244.82,01,10,2013,00,00*56
$GPGGA,1494244.83,4334.841998,N,14200.124989,E,1,08,0.9,49.99,M,28.4,M,,,*7E
$GPZDA,1494244.83,01,10,2013,00,00*57
$GPGGA,1494244.84,4334.841998,N,14200.124989,E,1,08,0.9,49.99,M,28.4,M,,,*79
$GPZDA,1494244.84,01,10,2013,00,00*50
$GPGGA,1494244.85,4334.841998,N,14200.124990,E,1,08,0.9,49.99,M,28.4,M,,,*70
$GPZDA,1494244.85,01,10,2013,00,00*51
$GPGGA,1494244.86,4334.841997,N,14200.124991,E,1,08,0.9,49.99,M,28.4,M,,,*7D
$GPZDA,1494244.86,01,10,2013,00,00*52
$GPGGA,1494244.87,4334.841997,N,14200.124992,E,1,08,0.9,49.99,M,28.4,M,,,*7F
$GPZDA,1494244.87,01,10,2013,00,00*53
$GPGGA,1494244.88,4334.841997,N,14200.124993,E,1,08,0.9,49.99,M,28.4,M,,,*71
$GPZDA,1494244.88,01,10,2013,00,00*5C
$GPGGA,1494244.89,4334.841997,N,14200.124994,E,1,08,0.9,49.99,M,28.4,M,,,*77
$GPZDA,1494244.89,01,10,2013,00,00*5D
$GPGGA,1494244.90,4334.841997,N,14200.124995,E,1,08,0.9,49.98,M,28.4,M,,,*7F
$GPZDA,1494244.90,01,10,2013,00,00*55
$GPGGA,1494244.91,4334.841996,N,14200.124996,E,1,08,0.9,49.98,M,28.4,M,,,*7C
$GPZDA,1494244.91,01,10,2013,00,00*54
$GPGGA,1494244.92,4334.841996,N,14200.124997,E,1,08,0.9,49.98,M,28.4,M,,,*7E
$GPZDA,1494244.92,01,10,2013,00,00*57
$GPGGA,1494244.93,4334.841996,N,14200.124998,E,1,08,0.9,49.98,M,28.4,M,,,*70
$GPZDA,1494244.93,01,10,2013,00,00*56
$GPGGA,1494244.94,4334.841996,N,14200.124999,E,1,08,0.9,49.98,M,28.4,M,,,*76
$GPZDA,1494244.94,01,10,2013,00,00*51
$GPGGA,1494244.95,4334.841995,N,14200.125000,E,1,08,0.9,49.98,M,28.4,M,,,*7C
$GPZDA,1494244.95,01,10,2013,00,00*50
$GPGGA,1494244.96,4334.841995,N,14200.125001,E,1,08,0.9,49.98,M,28.4,M,,,*7E
$GPZDA,1494244.96,01,10,2013,00,00*53
$GPGGA,1494244.97,4334.841995,N,14200.125003,E,1,08,0.9,49.98,M,28.4,M,,,*7D
$GPZDA,1494244.97,01,10,2013,00,00*52
$GPGGA,1494244.98,4334.841994,N,14200.125004,E,1,08,0.9,49.97,M,28.4,M,,,*7B
$GPZDA,1494244.98,01,10,2013,00,00*5D
$GPGGA,1494244.99,4334.841994,N,14200.125005,E,1,08,0.9,49.97,M,28.4,M,,,*7B
$GPZDA,1494244.99,01,10,2013,00,00*5C
$GPGGA,1494245.00,4334.841994,N,14200.125006,E,1,08,0.9,49.97,M,28.4,M,,,*79
$GPZDA,1494245.00,01,10,2013,00,00*5D
$GPGGA,1494245.01,4334.841994,N,14200.125008,E,1,08,0.9,49.97,M,28.4,M,,,*76
$GPZDA,1494245.01,01,10,2013,00,00*5C
$GPGGA,1494245.02,4334.841993,N,14200.125009,E,1,08,0.9,49.97,M,28.4,M,,,*73
$GPZDA,1494245.02,01,10,2013,00,00*5F
$GPGGA,1494245.03,4334.841993,N,14200.125011,E,1,08,0.9,49.97,M,28.4,M,,,*7B
$GPZDA,1494245.03,01,10,2013,00,00*5E
$GPGGA,1494245.04,4334.841993,N,14200.125012,E,1,08,0.9,49.97,M,28.4,M,,,*7F
$GPZDA,1494245.04,01,10,2013,00,00*59
$GPGGA,1494245.05,4334.841992,N,14200.125013,E,1,08,0.9,49.96,M,28.4,M,,,*7F
$GPZDA,1494245.05,01,10,2013,00,00*58
$GPGGA,1494245.06,4334.841992,N,14200.125015,E,1,08,0.9,49.96,M,28.4,M,,,*7A
$GPZDA,1494245.06,01,10,2013,00,00*5B
$GPGGA,1494245.07,4334.841992,N,14200.125017,E,1,08,0.9,49.96,M,28.4,M,,,*79
$GPZDA,1494245.07,01,10,2013,00,00*5A
$GPGGA,1494245.08,4334.841991,N,14200.125018,E,1,08,0.9,49.96,M,28.4,M,,,*7A
$GPZDA,1494245.08,01,10,2013,00,00*55
$GPGGA,1494245.09,4334.841991,N,14200.125020,E,1,08,0.9,49.96,M,28.4,M,,,*70
$GPZDA,1494245.09,01,10,2013,00,00*54
$GPGGA,1494245.10,4334.841990,N,14200.125021,E,1,08,0.9,49.96,M,28.4,M,,,*78
$GPZDA,1494245.10,01,10,2013,00,00*5C
$GPGGA,1494245.11,4334.841990,N,14200.125023,E,1,08,0.9,49.95,M,28.4,M,,,*78
$GPZDA,1494245.11,01,10,2013,00,00*5D
$GPGGA,1494245.12,4334.841990,N,14200.125025,E,1,08,0.9,49.95,M,28.4,M,,,*7D
$GPZDA,1494245.12,01,10,2013,00,00*5E
$GPGGA,1494245.13,4334.841989,N,14200.125027,E,1,08,0.9,49.95,M,28.4,M,,,*76
$GPZDA,1494245.13,01,10,2013,00,00*5F
$GPGGA,1494245.14,4334.841989,N,14200.125029,E,1,08,0.9,49.95,M,28.4,M,,,*7F
$GPZDA,1494245.14,01,10,2013,00,00*58
$GPGGA,1494245.15,4334.841988,N,14200.125030,E,1,08,0.9,49.95,M,28.4,M,,,*77
$GPZDA,1494245.15,01,10,2013,00,00*59
$GPGGA,1494245.16,4334.841988,N,14200.125032,E,1,08,0.9,49.95,M,28.4,M,,,*76
$GPZDA,1494245.16,01,10,2013,00,00*5A
$GPGGA,1494245.17,4334.841988,N,14200.125034,E,1,08,0.9,49.94,M,28.4,M,,,*70
$GPZDA,1494245.17,01,10,2013,00,00*5B
$GPGGA,1494245.18,4334.841987,N,14200.125036,E,1,08,0.9,49.94,M,28.4,M,,,*72
$GPZDA,1494245.18,01,10,2013,00,00*54
$GPGGA,1494245.19,4334.841987,N,14200.125038,E,1,08,0.9,49.94,M,28.4,M,,,*7D
$GPZDA,1494245.19,01,10,2013,00,00*55
$GPGGA,1494245.20,4334.841986,N,14200.125040,E,1,08,0.9,49.94,M,28.4,M,,,*79
$GPZDA,1494245.20,01,10,2013,00,00*5F
$GPGGA,1494245.21,4334.841986,N,14200.125042,E,1,08,0.9,49.93,M,28.4,M,,,*7D
$GPZDA,1494245.21,01,10,2013,00,00*5E
$GPGGA,1494245.22,4334.841985,N,14200.125044,E,1,08,0.9,49.93,M,28.4,M,,,*7B
$GPZDA,1494245.22,01,10,2013,00,00*5D
$GPGGA,1494245.23,4334.841985,N,14200.125046,E,1,08,0.9,49.93,M,28.4,M,,,*78
$GPZDA,1494245.23,01,10,2013,00,00*5C
$GPGGA,1494245.24,4334.841984,N,14200.125048,E,1,08,0.9,49.93,M,28.4,M,,,*70
$GPZDA,1494245.24,01,10,2013,00,00*5B
$GPGGA,1494245.25,4334.841984,N,14200.125051,E,1,08,0.9,49.93,M,28.4,M,,,*79
$GPZDA,1494245.25,01,10,2013,00,00*5A
$GPGGA,1494245.26,4334.841983,N,14200.125053,E,1,08,0.9,49.92,M,28.4,M,,,*7E
$GPZDA,1494245.26,01,10,2013,00,00*59
$GPGGA,1494245.27,4334.841983,N,14200.125055,E,1,08,0.9,49.92,M,28.4,M,,,*79
$GPZDA,1494245.27,01,10,2013,00,00*58
$GPGGA,1494245.28,4334.841982,N,14200.125057,E,1,08,0.9,49.92,M,28.4,M,,,*75
$GPZDA,1494245.28,01,10,2013,00,00*57
$GPGGA,1494245.29,4334.841982,N,14200.125060,E,1,08,0.9,49.92,M,28.4,M,,,*70
$GPZDA,1494245.29,01,10,2013,00,00*56
$GPGGA,1494245.30,4334.841981,N,14200.125062,E,1,08,0.9,49.91,M,28.4,M,,,*7A
$GPZDA,1494245.30,01,10,2013,00,00*5E
$GPGGA,1494245.31,4334.841981,N,14200.125064,E,1,08,0.9,49.91,M,28.4,M,,,*7D
$GPZDA,1494245.31,01,10,2013,00,00*5F
$GPGGA,1494245.32,4334.841980,N,14200.125067,E,1,08,0.9,49.91,M,28.4,M,,,*7C
$GPZDA,1494245.32,01,10,2013,00,00*5C
$GPGGA,1494245.33,4334.841980,N,14200.125069,E,1,08,0.9,49.91,M,28.4,M,,,*73
$GPZDA,1494245.33,01,10,2013,00,00*5D
$GPGGA,1494245.34,4334.841979,N,14200.125072,E,1,08,0.9,49.90,M,28.4,M,,,*79
$GPZDA,1494245.34,01,10,2013,00,00*5A
$GPGGA,1494245.35,4334.841978,N,14200.125074,E,1,08,0.9,49.90,M,28.4,M,,,*7F
$GPZDA,1494245.35,01,10,2013,00,00*5B
$GPGGA,1494245.36,4334.841978,N,14200.125077,E,1,08,0.9,49.90,M,28.4,M,,,*7F
$GPZDA,1494245.36,01,10,2013,00,00*58
$GPGGA,1494245.37,4334.841977,N,14200.125080,E,1,08,0.9,49.90,M,28.4,M,,,*79
$GPZDA,1494245.37,01,10,2013,00,00*59
$GPGGA,1494245.38,4334.841977,N,14200.125082,E,1,08,0.9,49.89,M,28.4,M,,,*7C
$GPZDA,1494245.38,01,10,2013,00,00*56
$GPGGA,1494245.39,4334.841976,N,14200.125085,E,1,08,0.9,49.89,M,28.4,M,,,*7B
$GPZDA,1494245.39,01,10,2013,00,00*57
$GPGGA,1494245.40,4334.841976,N,14200.125087,E,1,08,0.9,49.89,M,28.4,M,,,*77
$GPZDA,1494245.40,01,10,2013,00,00*59
$GPGGA,1494245.41,4334.841975,N,14200.125090,E,1,08,0.9,49.88,M,28.4,M,,,*72
$GPZDA,1494245.41,01,10,2013,00,00*58
$GPGGA,1494245.42,4334.841974,N,14200.125093,E,1,08,0.9,49.88,M,28.4,M,,,*73
$GPZDA,1494245.42,01,10,2013,00,00*5B
$GPGGA,1494245.43,4334.841974,N,14200.125096,E,1,08,0.9,49.88,M,28.4,M,,,*77
$GPZDA,1494245.43,01,10,2013,00,00*5A
$GPGGA,1494245.44,4334.841973,N,14200.125099,E,1,08,0.9,49.88,M,28.4,M,,,*78
$GPZDA,1494245.44,01,10,2013,00,00*5D
$GPGGA,1494245.45,4334.841972,N,14200.125102,E,1,08,0.9,49.87,M,28.4,M,,,*74
$GPZDA,1494245.45,01,10,2013,00,00*5C
$GPGGA,1494245.46,4334.841972,N,14200.125104,E,1,08,0.9,49.87,M,28.4,M,,,*71
$GPZDA,1494245.46,01,10,2013,00,00*5F
$GPGGA,1494245.47,4334.841971,N,14200.125107,E,1,08,0.9,49.87,M,28.4,M,,,*70
$GPZDA,1494245.47,01,10,2013,00,00*5E
$GPGGA,1494245.48,4334.841970,N,14200.125110,E,1,08,0.9,49.86,M,28.4,M,,,*79
$GPZDA,1494245.48,01,10,2013,00,00*51
$GPGGA,1494245.49,4334.841970,N,14200.125113,E,1,08,0.9,49.86,M,28.4,M,,,*7B
$GPZDA,1494245.49,01,10,2013,00,00*50
$GPGGA,1494245.50,4334.841969,N,14200.125116,E,1,08,0.9,49.86,M,28.4,M,,,*7E
$GPZDA,1494245.50,01,10,2013,00,00*58
$GPGGA,1494245.51,4334.841968,N,14200.125119,E,1,08,0.9,49.85,M,28.4,M,,,*72
$GPZDA,1494245.51,01,10,2013,00,00*59
$GPGGA,1494245.52,4334.841968,N,14200.125123,E,1,08,0.9,49.85,M,28.4,M,,,*78
$GPZDA,1494245.52,01,10,2013,00,00*5A
$GPGGA,1494245.53,4334.841967,N,14200.125126,E,1,08,0.9,49.85,M,28.4,M,,,*73
$GPZDA,1494245.53,01,10,2013,00,00*5B
$GPGGA,1494245.54,4334.841966,N,14200.125128,E,1,08,0.9,49.84,M,28.4,M,,,*7A
$GPZDA,1494245.54,01,10,2013,00,00*5C
$GPGGA,1494245.55,4334.841966,N,14200.125132,E,1,08,0.9,49.84,M,28.4,M,,,*70
$GPZDA,1494245.55,01,10,2013,00,00*5D
$GPGGA,1494245.56,4334.841965,N,14200.125135,E,1,08,0.9,49.84,M,28.4,M,,,*77
$GPZDA,1494245.56,01,10,2013,00,00*5E
$GPGGA,1494245.57,4334.841964,N,14200.125139,E,1,08,0.9,49.83,M,28.4,M,,,*7C
$GPZDA,1494245.57,01,10,2013,00,00*5F
$GPGGA,1494245.58,4334.841963,N,14200.125142,E,1,08,0.9,49.83,M,28.4,M,,,*78
$GPZDA,1494245.58,01,10,2013,00,00*50
$GPGGA,1494245.59,4334.841962,N,14200.125145,E,1,08,0.9,49.83,M,28.4,M,,,*7F
$GPZDA,1494245.59,01,10,2013,00,00*51
$GPGGA,1494245.60,4334.841962,N,14200.125149,E,1,08,0.9,49.82,M,28.4,M,,,*78
$GPZDA,1494245.60,01,10,2013,00,00*5B
$GPGGA,1494245.61,4334.841961,N,14200.125152,E,1,08,0.9,49.82,M,28.4,M,,,*70
$GPZDA,1494245.61,01,10,2013,00,00*5A
$GPGGA,1494245.62,4334.841960,N,14200.125155,E,1,08,0.9,49.82,M,28.4,M,,,*75
$GPZDA,1494245.62,01,10,2013,00,00*59
$GPGGA,1494245.63,4334.841959,N,14200.125158,E,1,08,0.9,49.81,M,28.4,M,,,*70
$GPZDA,1494245.63,01,10,2013,00,00*58
$GPGGA,1494245.64,4334.841959,N,14200.125162,E,1,08,0.9,49.81,M,28.4,M,,,*7E
$GPZDA,1494245.64,01,10,2013,00,00*5F
$GPGGA,1494245.65,4334.841958,N,14200.125166,E,1,08,0.9,49.81,M,28.4,M,,,*7A
$GPZDA,1494245.65,01,10,2013,00,00*5E
$GPGGA,1494245.66,4334.841957,N,14200.125169,E,1,08,0.9,49.80,M,28.4,M,,,*78
$GPZDA,1494245.66,01,10,2013,00,00*5D
$GPGGA,1494245.67,4334.841956,N,14200.125173,E,1,08,0.9,49.80,M,28.4,M,,,*73
$GPZDA,1494245.67,01,10,2013,00,00*5C
$GPGGA,1494245.68,4334.841955,N,14200.125177,E,1,08,0.9,49.79,M,28.4,M,,,*7D
$GPZDA,1494245.68,01,10,2013,00,00*53
$GPGGA,1494245.69,4334.841954,N,14200.125180,E,1,08,0.9,49.79,M,28.4,M,,,*75
$GPZDA,1494245.69,01,10,2013,00,00*52
$GPGGA,1494245.70,4334.841954,N,14200.125184,E,1,08,0.9,49.79,M,28.4,M,,,*79
$GPZDA,1494245.70,01,10,2013,00,00*5A
$GPGGA,1494245.71,4334.841953,N,14200.125187,E,1,08,0.9,49.78,M,28.4,M,,,*7D
$GPZDA,1494245.71,01,10,2013,00,00*5B
$GPGGA,1494245.72,4334.841952,N,14200.125191,E,1,08,0.9,49.78,M,28.4,M,,,*78
$GPZDA,1494245.72,01,10,2013,00,00*58
$GPGGA,1494245.73,4334.841951,N,14200.125195,E,1,08,0.9,49.77,M,28.4,M,,,*71
$GPZDA,1494245.73,01,10,2013,00,00*59
$GPGGA,1494245.74,4334.841950,N,14200.125199,E,1,08,0.9,49.77,M,28.4,M,,,*7B
$GPZDA,1494245.74,01,10,2013,00,00*5E
$GPGGA,1494245.75,4334.841949,N,14200.125203,E,1,08,0.9,49.77,M,28.4,M,,,*72
$GPZDA,1494245.75,01,10,2013,00,00*5F
$GPGGA,1494245.76,4334.841948,N,14200.125207,E,1,08,0.9,49.76,M,28.4,M,,,*75
$GPZDA,1494245.76,01,10,2013,00,00*5C
$GPGGA,1494245.77,4334.841947,N,14200.125211,E,1,08,0.9,49.76,M,28.4,M,,,*7C
$GPZDA,1494245.77,01,10,2013,00,00*5D
$GPGGA,1494245.78,4334.841946,N,14200.125215,E,1,08,0.9,49.75,M,28.4,M,,,*75
$GPZDA,1494245.78,01,10,2013,00,00*52
$GPGGA,1494245.79,4334.841945,N,14200.125219,E,1,08,0.9,49.75,M,28.4,M,,,*7B
$GPZDA,1494245.79,01,10,2013,00,00*53
$GPGGA,1494245.80,4334.841945,N,14200.125223,E,1,08,0.9,49.75,M,28.4,M,,,*74
$GPZDA,1494245.80,01,10,2013,00,00*55
$GPGGA,1494245.81,4334.841944,N,14200.125227,E,1,08,0.9,49.74,M,28.4,M,,,*71
$GPZDA,1494245.81,01,10,2013,00,00*54
$GPGGA,1494245.82,4334.841943,N,14200.125231,E,1,08,0.9,49.74,M,28.4,M,,,*72
$GPZDA,1494245.82,01,10,2013,00,00*57
$GPGGA,1494245.83,4334.841942,N,14200.125236,E,1,08,0.9,49.73,M,28.4,M,,,*72
$GPZDA,1494245.83,01,10,2013,00,00*56
$GPGGA,1494245.84,4334.841941,N,14200.125240,E,1,08,0.9,49.73,M,28.4,M,,,*77
$GPZDA,1494245.84,01,10,2013,00,00*51
$GPGGA,1494245.85,4334.841940,N,14200.125244,E,1,08,0.9,49.72,M,28.4,M,,,*72
$GPZDA,1494245.85,01,10,2013,00,00*50
$GPGGA,1494245.86,4334.841939,N,14200.125248,E,1,08,0.9,49.72,M,28.4,M,,,*73
$GPZDA,1494245.86,01,10,2013,00,00*53
$GPGGA,1494245.87,4334.841938,N,14200.125253,E,1,08,0.9,49.72,M,28.4,M,,,*79
$GPZDA,1494245.87,01,10,2013,00,00*52
$GPGGA,1494245.88,4334.841937,N,14200.125257,E,1,08,0.9,49.71,M,28.4,M,,,*7E
$GPZDA,1494245.88,01,10,2013,00,00*5D
$GPGGA,1494245.89,4334.841936,N,14200.125261,E,1,08,0.9,49.71,M,28.4,M,,,*7B
$GPZDA,1494245.89,01,10,2013,00,00*5C
$GPGGA,1494245.90,4334.841935,N,14200.125266,E,1,08,0.9,49.70,M,28.4,M,,,*76
$GPZDA,1494245.90,01,10,2013,00,00*54
$GPGGA,1494245.91,4334.841934,N,14200.125270,E,1,08,0.9,49.70,M,28.4,M,,,*71
$GPZDA,1494245.91,01,10,2013,00,00*55
$GPGGA,1494245.92,4334.841933,N,14200.125275,E,1,08,0.9,49.69,M,28.4,M,,,*78
$GPZDA,1494245.92,01,10,2013,00,00*56
$GPGGA,1494245.93,4334.841932,N,14200.125279,E,1,08,0.9,49.69,M,28.4,M,,,*74
$GPZDA,1494245.93,01,10,2013,00,00*57
$GPGGA,1494245.94,4334.841931,N,14200.125284,E,1,08,0.9,49.68,M,28.4,M,,,*73
$GPZDA,1494245.94,01,10,2013,00,00*50
$GPGGA,1494245.95,4334.841930,N,14200.125288,E,1,08,0.9,49.68,M,28.4,M,,,*7F
$GPZDA,1494245.95,01,10,2013,00,00*51
$GPGGA,1494245.96,4334.841929,N,14200.125293,E,1,08,0.9,49.67,M,28.4,M,,,*71
$GPZDA,1494245.96,01,10,2013,00,00*52
$GPGGA,1494245.97,4334.841927,N,14200.125297,E,1,08,0.9,49.67,M,28.4,M,,,*7A
$GPZDA,1494245.97,01,10,2013,00,00*53
$GPGGA,1494245.98,4334.841926,N,14200.125302,E,1,08,0.9,49.66,M,28.4,M,,,*78
$GPZDA,1494245.98,01,10,2013,00,00*5C
$GPGGA,1494245.99,4334.841925,N,14200.125306,E,1,08,0.9,49.66,M,28.4,M,,,*7E
$GPZDA,1494245.99,01,10,2013,00,00*5D
$GPGGA,1494246.00,4334.841924,N,14200.125311,E,1,08,0.9,49.65,M,28.4,M,,,*79
$GPZDA,1494246.00,01,10,2013,00,00*5E
$GPGGA,1494246.01,4334.841923,N,14200.125316,E,1,08,0.9,49.65,M,28.4,M,,,*78
$GPZDA,1494246.01,01,10,2013,00,00*5F
$GPGGA,1494246.02,4334.841922,N,14200.125321,E,1,08,0.9,49.64,M,28.4,M,,,*7F
$GPZDA,1494246.02,01,10,2013,00,00*5C
$GPGGA,1494246.03,4334.841921,N,14200.125326,E,1,08,0.9,49.64,M,28.4,M,,,*7A
$GPZDA,1494246.03,01,10,2013,00,00*5D
$GPGGA,1494246.04,4334.841920,N,14200.125331,E,1,08,0.9,49.63,M,28.4,M,,,*7D
$GPZDA,1494246.04,01,10,2013,00,00*5A
$GPGGA,1494246.05,4334.841919,N,14200.125336,E,1,08,0.9,49.63,M,28.4,M,,,*71
$GPZDA,1494246.05,01,10,2013,00,00*5B
$GPGGA,1494246.06,4334.841917,N,14200.125341,E,1,08,0.9,49.62,M,28.4,M,,,*7D
$GPZDA,1494246.06,01,10,2013,00,00*58
$GPGGA,1494246.07,4334.841916,N,14200.125345,E,1,08,0.9,49.62,M,28.4,M,,,*79
$GPZDA,1494246.07,01,10,2013,00,00*59
$GPGGA,1494246.08,4334.841915,N,14200.125350,E,1,08,0.9,49.61,M,28.4,M,,,*72
$GPZDA,1494246.08,01,10,2013,00,00*56
$GPGGA,1494246.09,4334.841914,N,14200.125356,E,1,08,0.9,49.61,M,28.4,M,,,*74
$GPZDA,1494246.09,01,10,2013,00,00*57
$GPGGA,1494246.10,4334.841913,N,14200.125361,E,1,08,0.9,49.60,M,28.4,M,,,*7E
$GPZDA,1494246.10,01,10,2013,00,00*5F
$GPGGA,1494246.11,4334.841911,N,14200.125366,E,1,08,0.9,49.60,M,28.4,M,,,*7A
$GPZDA,1494246.11,01,10,2013,00,00*5E
$GPGGA,1494246.12,4334.841910,N,14200.125371,E,1,08,0.9,49.59,M,28.4,M,,,*74
$GPZDA,1494246.12,01,10,2013,00,00*5D
$GPGGA,1494246.13,4334.841909,N,14200.125376,E,1,08,0.9,49.59,M,28.4,M,,,*7A
$GPZDA,1494246.13,01,10,2013,00,00*5C
$GPGGA,1494246.14,4334.841908,N,14200.125382,E,1,08,0.9,49.58,M,28.4,M,,,*76
$GPZDA,1494246.14,01,10,2013,00,00*5B
$GPGGA,1494246.15,4334.841907,N,14200.125386,E,1,08,0.9,49.58,M,28.4,M,,,*7C
$GPZDA,1494246.15,01,10,2013,00,00*5A
$GPGGA,1494246.16,4334.841906,N,14200.125392,E,1,08,0.9,49.57,M,28.4,M,,,*74
$GPZDA,1494246.16,01,10,2013,00,00*59
$GPGGA,1494246.17,4334.841904,N,14200.125397,E,1,08,0.9,49.56,M,28.4,M,,,*73
$GPZDA,1494246.17,01,10,2013,00,00*58
$GPGGA,1494246.18,4334.841903,N,14200.125403,E,1,08,0.9,49.56,M,28.4,M,,,*71
$GPZDA,1494246.18,01,10,2013,00,00*57
$GPGGA,1494246.19,4334.841902,N,14200.125408,E,1,08,0.9,49.55,M,28.4,M,,,*79
$GPZDA,1494246.19,01,10,2013,00,00*56
$GPGGA,1494246.20,4334.841900,N,14200.125414,E,1,08,0.9,49.55,M,28.4,M,,,*7C
$GPZDA,1494246.20,01,10,2013,00,00*5C
$GPGGA,1494246.21,4334.841899,N,14200.125419,E,1,08,0.9,49.54,M,28.4,M,,,*70
$GPZDA,1494246.21,01,10,2013,00,00*5D
$GPGGA,1494246.22,4334.841898,N,14200.125425,E,1,08,0.9,49.54,M,28.4,M,,,*7D
$GPZDA,1494246.22,01,10,2013,00,00*5E
$GPGGA,1494246.23,4334.841897,N,14200.125430,E,1,08,0.9,49.53,M,28.4,M,,,*70
$GPZDA,1494246.23,01,10,2013,00,00*5F
$GPGGA,1494246.24,4334.841895,N,14200.125435,E,1,08,0.9,49.52,M,28.4,M,,,*71
$GPZDA,1494246.24,01,10,2013,00,00*58
$GPGGA,1494246.25,4334.841894,N,14200.125441,E,1,08,0.9,49.52,M,28.4,M,,,*72
$GPZDA,1494246.25,01,10,2013,00,00*59
$GPGGA,1494246.26,4334.841893,N,14200.125447,E,1,08,0.9,49.51,M,28.4,M,,,*73
$GPZDA,1494246.26,01,10,2013,00,00*5A
$GPGGA,1494246.27,4334.841892,N,14200.125453,E,1,08,0.9,49.51,M,28.4,M,,,*76
$GPZDA,1494246.27,01,10,2013,00,00*5B
$GPGGA,1494246.28,4334.841890,N,14200.125459,E,1,08,0.9,49.50,M,28.4,M,,,*70
$GPZDA,1494246.28,01,10,2013,00,00*54
$GPGGA,1494246.29,4334.841889,N,14200.125465,E,1,08,0.9,49.51,M,28.4,M,,,*77
$GPZDA,1494246.29,01,10,2013,00,00*55
$GPGGA,1494246.30,4334.841888,N,14200.125470,E,1,08,0.9,49.51,M,28.4,M,,,*7A
$GPZDA,1494246.30,01,10,2013,00,00*5D
$GPGGA,1494246.31,4334.841887,N,14200.125476,E,1,08,0.9,49.52,M,28.4,M,,,*71
$GPZDA,1494246.31,01,10,2013,00,00*5C
$GPGGA,1494246.32,4334.841886,N,14200.125483,E,1,08,0.9,49.53,M,28.4,M,,,*78
$GPZDA,1494246.32,01,10,2013,00,00*5F
$GPGGA,1494246.33,4334.841885,N,14200.125490,E,1,08,0.9,49.55,M,28.4,M,,,*7E
$GPZDA,1494246.33,01,10,2013,00,00*5E
$GPGGA,1494246.34,4334.841884,N,14200.125498,E,1,08,0.9,49.57,M,28.4,M,,,*72
$GPZDA,1494246.34,01,10,2013,00,00*59
$GPGGA,1494246.35,4334.841884,N,14200.125505,E,1,08,0.9,49.59,M,28.4,M,,,*78
$GPZDA,1494246.35,01,10,2013,00,00*58
$GPGGA,1494246.36,4334.841883,N,14200.125513,E,1,08,0.9,49.62,M,28.4,M,,,*73
$GPZDA,1494246.36,01,10,2013,00,00*5B
$GPGGA,1494246.37,4334.841883,N,14200.125519,E,1,08,0.9,49.65,M,28.4,M,,,*7F
$GPZDA,1494246.37,01,10,2013,00,00*5A
$GPGGA,1494246.38,4334.841882,N,14200.125528,E,1,08,0.9,49.69,M,28.4,M,,,*7F
$GPZDA,1494246.38,01,10,2013,00,00*55
$GPGGA,1494246.39,4334.841882,N,14200.125536,E,1,08,0.9,49.74,M,28.4,M,,,*7D
$GPZDA,1494246.39,01,10,2013,00,00*54
$GPGGA,1494246.40,4334.841881,N,14200.125544,E,1,08,0.9,49.78,M,28.4,M,,,*79
$GPZDA,1494246.40,01,10,2013,00,00*5A
$GPGGA,1494246.41,4334.841881,N,14200.125553,E,1,08,0.9,49.83,M,28.4,M,,,*7A
$GPZDA,1494246.41,01,10,2013,00,00*5B
$GPGGA,1494246.42,4334.841880,N,14200.125561,E,1,08,0.9,49.89,M,28.4,M,,,*73
$GPZDA,1494246.42,01,10,2013,00,00*58
$GPGGA,1494246.43,4334.841880,N,14200.125569,E,1,08,0.9,49.95,M,28.4,M,,,*77
$GPZDA,1494246.43,01,10,2013,00,00*59
$GPGGA,1494246.44,4334.841879,N,14200.125578,E,1,08,0.9,50.01,M,28.4,M,,,*73
$GPZDA,1494246.44,01,10,2013,00,00*5E
$GPGGA,1494246.45,4334.841878,N,14200.125587,E,1,08,0.9,50.08,M,28.4,M,,,*7A
$GPZDA,1494246.45,01,10,2013,00,00*5F
$GPGGA,1494246.46,4334.841877,N,14200.125595,E,1,08,0.9,50.14,M,28.4,M,,,*78
$GPZDA,1494246.46,01,10,2013,00,00*5C
$GPGGA,1494246.47,4334.841877,N,14200.125605,E,1,08,0.9,50.22,M,28.4,M,,,*76
$GPZDA,1494246.47,01,10,2013,00,00*5D
$GPGGA,1494246.48,4334.841876,N,14200.125615,E,1,08,0.9,50.30,M,28.4,M,,,*7A
$GPZDA,1494246.48,01,10,2013,00,00*52
$GPGGA,1494246.49,4334.841876,N,14200.125624,E,1,08,0.9,50.39,M,28.4,M,,,*70
$GPZDA,1494246.49,01,10,2013,00,00*53
$GPGGA,1494246.50,4334.841876,N,14200.125632,E,1,08,0.9,50.47,M,28.4,M,,,*76
$GPZDA,1494246.50,01,10,2013,00,00*5B
$GPGGA,1494246.51,4334.841876,N,14200.125640,E,1,08,0.9,50.56,M,28.4,M,,,*72
$GPZDA,1494246.51,01,10,2013,00,00*5A
$GPGGA,1494246.52,4334.841876,N,14200.125649,E,1,08,0.9,50.65,M,28.4,M,,,*78
$GPZDA,1494246.52,01,10,2013,00,00*59
$GPGGA,1494246.53,4334.841875,N,14200.125655,E,1,08,0.9,50.74,M,28.4,M,,,*77
$GPZDA,1494246.53,01,10,2013,00,00*58
$GPGGA,1494246.54,4334.841873,N,14200.125662,E,1,08,0.9,50.84,M,28.4,M,,,*7D
$GPZDA,1494246.54,01,10,2013,00,00*5F
$GPGGA,1494246.55,4334.841871,N,14200.125667,E,1,08,0.9,50.93,M,28.4,M,,,*7D
$GPZDA,1494246.55,01,10,2013,00,00*5E
$GPGGA,1494246.56,4334.841869,N,14200.125673,E,1,08,0.9,51.04,M,28.4,M,,,*7D
$GPZDA,1494246.56,01,10,2013,00,00*5D
$GPGGA,1494246.57,4334.841867,N,14200.125679,E,1,08,0.9,51.16,M,28.4,M,,,*7B
$GPZDA,1494246.57,01,10,2013,00,00*5C
$GPGGA,1494246.58,4334.841864,N,14200.125684,E,1,08,0.9,51.26,M,28.4,M,,,*76
$GPZDA,1494246.58,01,10,2013,00,00*53
$GPGGA,1494246.59,4334.841862,N,14200.125690,E,1,08,0.9,51.37,M,28.4,M,,,*74
$GPZDA,1494246.59,01,10,2013,00,00*52
$GPGGA,1494246.60,4334.841860,N,14200.125695,E,1,08,0.9,51.48,M,28.4,M,,,*71
$GPZDA,1494246.60,01,10,2013,00,00*58
$GPGGA,1494246.61,4334.841857,N,14200.125701,E,1,08,0.9,51.60,M,28.4,M,,,*72
$GPZDA,1494246.61,01,10,2013,00,00*59
$GPGGA,1494246.62,4334.841855,N,14200.125707,E,1,08,0.9,51.71,M,28.4,M,,,*75
$GPZDA,1494246.62,01,10,2013,00,00*5A
$GPGGA,1494246.63,4334.841853,N,14200.125713,E,1,08,0.9,51.82,M,28.4,M,,,*7B
$GPZDA,1494246.63,01,10,2013,00,00*5B
$GPGGA,1494246.64,4334.841851,N,14200.125720,E,1,08,0.9,51.94,M,28.4,M,,,*79
$GPZDA,1494246.64,01,10,2013,00,00*5C
$GPGGA,1494246.65,4334.841849,N,14200.125727,E,1,08,0.9,52.08,M,28.4,M,,,*70
$GPZDA,1494246.65,01,10,2013,00,00*5D
$GPGGA,1494246.66,4334.841846,N,14200.125734,E,1,08,0.9,52.20,M,28.4,M,,,*74
$GPZDA,1494246.66,01,10,2013,00,00*5E
$GPGGA,1494246.67,4334.841844,N,14200.125742,E,1,08,0.9,52.33,M,28.4,M,,,*74
$GPZDA,1494246.67,01,10,2013,00,00*5F
$GPGGA,1494246.68,4334.841842,N,14200.125750,E,1,08,0.9,52.47,M,28.4,M,,,*7D
$GPZDA,1494246.68,01,10,2013,00,00*50
$GPGGA,1494246.69,4334.841840,N,14200.125758,E,1,08,0.9,52.60,M,28.4,M,,,*73
$GPZDA,1494246.69,01,10,2013,00,00*51
$GPGGA,1494246.70,4334.841838,N,14200.125765,E,1,08,0.9,52.74,M,28.4,M,,,*7F
$GPZDA,1494246.70,01,10,2013,00,00*59
$GPGGA,1494246.71,4334.841836,N,14200.125772,E,1,08,0.9,52.87,M,28.4,M,,,*7A
$GPZDA,1494246.71,01,10,2013,00,00*58
$GPGGA,1494246.72,4334.841833,N,14200.125780,E,1,08,0.9,53.01,M,28.4,M,,,*7E
$GPZDA,1494246.72,01,10,2013,00,00*5B
$GPGGA,1494246.73,4334.841831,N,14200.125789,E,1,08,0.9,53.17,M,28.4,M,,,*73
$GPZDA,1494246.73,01,10,2013,00,00*5A
$GPGGA,1494246.74,4334.841829,N,14200.125797,E,1,08,0.9,53.32,M,28.4,M,,,*75
$GPZDA,1494246.74,01,10,2013,00,00*5D
$GPGGA,1494246.75,4334.841827,N,14200.125804,E,1,08,0.9,53.48,M,28.4,M,,,*72
$GPZDA,1494246.75,01,10,2013,00,00*5C
$GPGGA,1494246.76,4334.841824,N,14200.125812,E,1,08,0.9,53.63,M,28.4,M,,,*7C
$GPZDA,1494246.76,01,10,2013,00,00*5F
$GPGGA,1494246.77,4334.841822,N,14200.125820,E,1,08,0.9,53.79,M,28.4,M,,,*71
$GPZDA,1494246.77,01,10,2013,00,00*5E
$GPGGA,1494246.78,4334.841820,N,14200.125827,E,1,08,0.9,53.95,M,28.4,M,,,*79
$GPZDA,1494246.78,01,10,2013,00,00*51
$GPGGA,1494246.79,4334.841817,N,14200.125835,E,1,08,0.9,54.11,M,28.4,M,,,*74
$GPZDA,1494246.79,01,10,2013,00,00*50
$GPGGA,1494246.80,4334.841815,N,14200.125843,E,1,08,0.9,54.27,M,28.4,M,,,*74
$GPZDA,1494246.80,01,10,2013,00,00*56
$GPGGA,1494246.81,4334.841813,N,14200.125849,E,1,08,0.9,54.42,M,28.4,M,,,*7A
$GPZDA,1494246.81,01,10,2013,00,00*57
$GPGGA,1494246.82,4334.841810,N,14200.125858,E,1,08,0.9,54.61,M,28.4,M,,,*7B
$GPZDA,1494246.82,01,10,2013,00,00*54
$GPGGA,1494246.83,4334.841808,N,14200.125865,E,1,08,0.9,54.78,M,28.4,M,,,*75
$GPZDA,1494246.83,01,10,2013,00,00*55
$GPGGA,1494246.84,4334.841806,N,14200.125873,E,1,08,0.9,54.96,M,28.4,M,,,*7B
$GPZDA,1494246.84,01,10,2013,00,00*52
$GPGGA,1494246.85,4334.841803,N,14200.125880,E,1,08,0.9,55.13,M,28.4,M,,,*7F
$GPZDA,1494246.85,01,10,2013,00,00*53
$GPGGA,1494246.86,4334.841801,N,14200.125888,E,1,08,0.9,55.31,M,28.4,M,,,*76
$GPZDA,1494246.86,01,10,2013,00,00*50
$GPGGA,1494246.87,4334.841799,N,14200.125895,E,1,08,0.9,55.49,M,28.4,M,,,*7A
$GPZDA,1494246.87,01,10,2013,00,00*51
$GPGGA,1494246.88,4334.841796,N,14200.125903,E,1,08,0.9,55.67,M,28.4,M,,,*78
$GPZDA,1494246.88,01,10,2013,00,00*5E
$GPGGA,1494246.89,4334.841794,N,14200.125910,E,1,08,0.9,55.86,M,28.4,M,,,*76
$GPZDA,1494246.89,01,10,2013,00,00*5F
$GPGGA,1494246.90,4334.841792,N,14200.125917,E,1,08,0.9,56.03,M,28.4,M,,,*71
$GPZDA,1494246.90,01,10,2013,00,00*57
$GPGGA,1494246.91,4334.841789,N,14200.125925,E,1,08,0.9,56.23,M,28.4,M,,,*79
$GPZDA,1494246.91,01,10,2013,00,00*56
$GPGGA,1494246.92,4334.841787,N,14200.125932,E,1,08,0.9,56.42,M,28.4,M,,,*75
$GPZDA,1494246.92,01,10,2013,00,00*55
$GPGGA,1494246.93,4334.841784,N,14200.125939,E,1,08,0.9,56.62,M,28.4,M,,,*7E
$GPZDA,1494246.93,01,10,2013,00,00*54
$GPGGA,1494246.94,4334.841782,N,14200.125946,E,1,08,0.9,56.81,M,28.4,M,,,*7A
$GPZDA,1494246.94,01,10,2013,00,00*53
$GPGGA,1494246.95,4334.841779,N,14200.125953,E,1,08,0.9,57.01,M,28.4,M,,,*72
$GPZDA,1494246.95,01,10,2013,00,00*52
$GPGGA,1494246.96,4334.841777,N,14200.125960,E,1,08,0.9,57.21,M,28.4,M,,,*7D
$GPZDA,1494246.96,01,10,2013,00,00*51
$GPGGA,1494246.97,4334.841775,N,14200.125967,E,1,08,0.9,57.41,M,28.4,M,,,*7F
$GPZDA,1494246.97,01,10,2013,00,00*50
$GPGGA,1494246.98,4334.841772,N,14200.125974,E,1,08,0.9,57.61,M,28.4,M,,,*77
$GPZDA,1494246.98,01,10,2013,00,00*5F
$GPGGA,1494246.99,4334.841770,N,14200.125980,E,1,08,0.9,57.79,M,28.4,M,,,*76
$GPZDA,1494246.99,01,10,2013,00,00*5E
$GPGGA,1494247.00,4334.841767,N,14200.125987,E,1,08,0.9,58.00,M,28.4,M,,,*77
$GPZDA,1494247.00,01,10,2013,00,00*5F
$GPGGA,1494247.01,4334.841765,N,14200.125994,E,1,08,0.9,58.22,M,28.4,M,,,*76
$GPZDA,1494247.01,01,10,2013,00,00*5E
$GPGGA,1494247.02,4334.841762,N,14200.126001,E,1,08,0.9,58.43,M,28.4,M,,,*73
$GPZDA,1494247.02,01,10,2013,00,00*5D
$GPGGA,1494247.03,4334.841760,N,14200.126008,E,1,08,0.9,58.64,M,28.4,M,,,*7C
$GPZDA,1494247.03,01,10,2013,00,00*5C
$GPGGA,1494247.04,4334.841757,N,14200.126014,E,1,08,0.9,58.86,M,28.4,M,,,*7E
$GPZDA,1494247.04,01,10,2013,00,00*5B
$GPGGA,1494247.05,4334.841755,N,14200.126021,E,1,08,0.9,59.07,M,28.4,M,,,*73
$GPZDA,1494247.05,01,10,2013,00,00*5A
$GPGGA,1494247.06,4334.841752,N,14200.126028,E,1,08,0.9,59.28,M,28.4,M,,,*73
$GPZDA,1494247.06,01,10,2013,00,00*59
$GPGGA,1494247.07,4334.841750,N,14200.126033,E,1,08,0.9,59.48,M,28.4,M,,,*7C
$GPZDA,1494247.07,01,10,2013,00,00*58
$GPGGA,1494247.08,4334.841747,N,14200.126040,E,1,08,0.9,59.72,M,28.4,M,,,*78
$GPZDA,1494247.08,01,10,2013,00,00*57
$GPGGA,1494247.09,4334.841744,N,14200.126047,E,1,08,0.9,59.94,M,28.4,M,,,*75
$GPZDA,1494247.09,01,10,2013,00,00*56
$GPGGA,1494247.10,4334.841742,N,14200.126053,E,1,08,0.9,60.16,M,28.4,M,,,*7E
$GPZDA,1494247.10,01,10,2013,00,00*5E
$GPGGA,1494247.11,4334.841739,N,14200.126059,E,1,08,0.9,60.38,M,28.4,M,,,*75
$GPZDA,1494247.11,01,10,2013,00,00*5F
$GPGGA,1494247.12,4334.841737,N,14200.126065,E,1,08,0.9,60.58,M,28.4,M,,,*71
$GPZDA,1494247.12,01,10,2013,00,00*5C
$GPGGA,1494247.13,4334.841734,N,14200.126071,E,1,08,0.9,60.81,M,28.4,M,,,*72
$GPZDA,1494247.13,01,10,2013,00,00*5D
$GPGGA,1494247.14,4334.841731,N,14200.126078,E,1,08,0.9,61.06,M,28.4,M,,,*77
$GPZDA,1494247.14,01,10,2013,00,00*5A
$GPGGA,1494247.15,4334.841729,N,14200.126084,E,1,08,0.9,61.29,M,28.4,M,,,*71
$GPZDA,1494247.15,01,10,2013,00,00*5B
$GPGGA,1494247.16,4334.841726,N,14200.126090,E,1,08,0.9,61.52,M,28.4,M,,,*74
$GPZDA,1494247.16,01,10,2013,00,00*58
$GPGGA,1494247.17,4334.841723,N,14200.126096,E,1,08,0.9,61.75,M,28.4,M,,,*73
$GPZDA,1494247.17,01,10,2013,00,00*59
$GPGGA,1494247.18,4334.841721,N,14200.126101,E,1,08,0.9,61.98,M,28.4,M,,,*72
$GPZDA,1494247.18,01,10,2013,00,00*56
$GPGGA,1494247.19,4334.841718,N,14200.126107,E,1,08,0.9,62.21,M,28.4,M,,,*7E
$GPZDA,1494247.19,01,10,2013,00,00*57
$GPGGA,1494247.20,4334.841715,N,14200.126113,E,1,08,0.9,62.45,M,28.4,M,,,*7E
$GPZDA,1494247.20,01,10,2013,00,00*5D
$GPGGA,1494247.21,4334.841713,N,14200.126118,E,1,08,0.9,62.66,M,28.4,M,,,*73
$GPZDA,1494247.21,01,10,2013,00,00*5C
$GPGGA,1494247.22,4334.841710,N,14200.126124,E,1,08,0.9,62.90,M,28.4,M,,,*75
$GPZDA,1494247.22,01,10,2013,00,00*5F
$GPGGA,1494247.23,4334.841707,N,14200.126130,E,1,08,0.9,63.16,M,28.4,M,,,*78
$GPZDA,1494247.23,01,10,2013,00,00*5E
$GPGGA,1494247.24,4334.841704,N,14200.126135,E,1,08,0.9,63.40,M,28.4,M,,,*7A
$GPZDA,1494247.24,01,10,2013,00,00*59
$GPGGA,1494247.25,4334.841702,N,14200.126140,E,1,08,0.9,63.64,M,28.4,M,,,*79
$GPZDA,1494247.25,01,10,2013,00,00*58
$GPGGA,1494247.26,4334.841699,N,14200.126146,E,1,08,0.9,63.88,M,28.4,M,,,*7D
$GPZDA,1494247.26,01,10,2013,00,00*5B
$GPGGA,1494247.27,4334.841696,N,14200.126151,E,1,08,0.9,64.12,M,28.4,M,,,*71
$GPZDA,1494247.27,01,10,2013,00,00*5A
$GPGGA,1494247.28,4334.841693,N,14200.126156,E,1,08,0.9,64.36,M,28.4,M,,,*7A
$GPZDA,1494247.28,01,10,2013,00,00*55
$GPGGA,1494247.29,4334.841691,N,14200.126161,E,1,08,0.9,64.58,M,28.4,M,,,*75
$GPZDA,1494247.29,01,10,2013,00,00*54
$GPGGA,1494247.30,4334.841688,N,14200.126166,E,1,08,0.9,64.83,M,28.4,M,,,*74
$GPZDA,1494247.30,01,10,2013,00,00*5C
$GPGGA,1494247.31,4334.841685,N,14200.126171,E,1,08,0.9,65.10,M,28.4,M,,,*75
$GPZDA,1494247.31,01,10,2013,00,00*5D
$GPGGA,1494247.32,4334.841682,N,14200.126176,E,1,08,0.9,65.35,M,28.4,M,,,*71
$GPZDA,1494247.32,01,10,2013,00,00*5E
$GPGGA,1494247.33,4334.841679,N,14200.126181,E,1,08,0.9,65.60,M,28.4,M,,,*7C
$GPZDA,1494247.33,01,10,2013,00,00*5F
$GPGGA,1494247.34,4334.841676,N,14200.126186,E,1,08,0.9,65.85,M,28.4,M,,,*78
$GPZDA,1494247.34,01,10,2013,00,00*58
$GPGGA,1494247.35,4334.841673,N,14200.126190,E,1,08,0.9,66.10,M,28.4,M,,,*74
$GPZDA,1494247.35,01,10,2013,00,00*59
$GPGGA,1494247.36,4334.841671,N,14200.126195,E,1,08,0.9,66.35,M,28.4,M,,,*77
$GPZDA,1494247.36,01,10,2013,00,00*5A
$GPGGA,1494247.37,4334.841668,N,14200.126199,E,1,08,0.9,66.57,M,28.4,M,,,*76
$GPZDA,1494247.37,01,10,2013,00,00*5B
$GPGGA,1494247.38,4334.841665,N,14200.126204,E,1,08,0.9,66.82,M,28.4,M,,,*7B
$GPZDA,1494247.38,01,10,2013,00,00*54
$GPGGA,1494247.39,4334.841662,N,14200.126208,E,1,08,0.9,67.10,M,28.4,M,,,*7B
$GPZDA,1494247.39,01,10,2013,00,00*55
$GPGGA,1494247.40,4334.841659,N,14200.126213,E,1,08,0.9,67.36,M,28.4,M,,,*73
$GPZDA,1494247.40,01,10,2013,00,00*5B
$GPGGA,1494247.41,4334.841656,N,14200.126217,E,1,08,0.9,67.61,M,28.4,M,,,*7B
$GPZDA,1494247.41,01,10,2013,00,00*5A
$GPGGA,1494247.42,4334.841653,N,14200.126221,E,1,08,0.9,67.87,M,28.4,M,,,*70
$GPZDA,1494247.42,01,10,2013,00,00*59
$GPGGA,1494247.43,4334.841650,N,14200.126226,E,1,08,0.9,68.12,M,28.4,M,,,*76
$GPZDA,1494247.43,01,10,2013,00,00*58
$GPGGA,1494247.44,4334.841647,N,14200.126230,E,1,08,0.9,68.38,M,28.4,M,,,*78
$GPZDA,1494247.44,01,10,2013,00,00*5F
$GPGGA,1494247.45,4334.841644,N,14200.126234,E,1,08,0.9,68.64,M,28.4,M,,,*77
$GPZDA,1494247.45,01,10,2013,00,00*5E
$GPGGA,1494247.46,4334.841641,N,14200.126238,E,1,08,0.9,68.90,M,28.4,M,,,*76
$GPZDA,1494247.46,01,10,2013,00,00*5D
$GPGGA,1494247.47,4334.841638,N,14200.126241,E,1,08,0.9,69.13,M,28.4,M,,,*7D
$GPZDA,1494247.47,01,10,2013,00,00*5C
$GPGGA,1494247.48,4334.841634,N,14200.126246,E,1,08,0.9,69.41,M,28.4,M,,,*7E
$GPZDA,1494247.48,01,10,2013,00,00*53
$GPGGA,1494247.49,4334.841631,N,14200.126249,E,1,08,0.9,69.67,M,28.4,M,,,*71
$GPZDA,1494247.49,01,10,2013,00,00*52
$GPGGA,1494247.50,4334.841628,N,14200.126253,E,1,08,0.9,69.94,M,28.4,M,,,*76
$GPZDA,1494247.50,01,10,2013,00,00*5A
$GPGGA,1494247.51,4334.841625,N,14200.126257,E,1,08,0.9,70.20,M,28.4,M,,,*79
$GPZDA,1494247.51,01,10,2013,00,00*5B
$GPGGA,1494247.52,4334.841622,N,14200.126260,E,1,08,0.9,70.43,M,28.4,M,,,*7C
$GPZDA,1494247.52,01,10,2013,00,00*58
$GPGGA,1494247.53,4334.841618,N,14200.126264,E,1,08,0.9,70.69,M,28.4,M,,,*78
$GPZDA,1494247.53,01,10,2013,00,00*59
$GPGGA,1494247.54,4334.841615,N,14200.126268,E,1,08,0.9,70.98,M,28.4,M,,,*70
$GPZDA,1494247.54,01,10,2013,00,00*5E
$GPGGA,1494247.55,4334.841611,N,14200.126271,E,1,08,0.9,71.25,M,28.4,M,,,*7A
$GPZDA,1494247.55,01,10,2013,00,00*5F
$GPGGA,1494247.56,4334.841608,N,14200.126275,E,1,08,0.9,71.51,M,28.4,M,,,*76
$GPZDA,1494247.56,01,10,2013,00,00*5C
$GPGGA,1494247.57,4334.841605,N,14200.126278,E,1,08,0.9,71.78,M,28.4,M,,,*7C
$GPZDA,1494247.57,01,10,2013,00,00*5D
$GPGGA,1494247.58,4334.841601,N,14200.126281,E,1,08,0.9,72.04,M,28.4,M,,,*79
$GPZDA,1494247.58,01,10,2013,00,00*52
$GPGGA,1494247.59,4334.841598,N,14200.126285,E,1,08,0.9,72.31,M,28.4,M,,,*79
$GPZDA,1494247.59,01,10,2013,00,00*53
$GPGGA,1494247.60,4334.841595,N,14200.126288,E,1,08,0.9,72.55,M,28.4,M,,,*71
$GPZDA,1494247.60,01,10,2013,00,00*59
$GPGGA,1494247.61,4334.841591,N,14200.126291,E,1,08,0.9,72.81,M,28.4,M,,,*75
$GPZDA,1494247.61,01,10,2013,00,00*58
$GPGGA,1494247.62,4334.841587,N,14200.126295,E,1,08,0.9,73.11,M,28.4,M,,,*7D
$GPZDA,1494247.62,01,10,2013,00,00*5B
$GPGGA,1494247.63,4334.841584,N,14200.126298,E,1,08,0.9,73.37,M,28.4,M,,,*76
$GPZDA,1494247.63,01,10,2013,00,00*5A
$GPGGA,1494247.64,4334.841580,N,14200.126301,E,1,08,0.9,73.64,M,28.4,M,,,*72
$GPZDA,1494247.64,01,10,2013,00,00*5D
$GPGGA,1494247.65,4334.841576,N,14200.126304,E,1,08,0.9,73.91,M,28.4,M,,,*75
$GPZDA,1494247.65,01,10,2013,00,00*5C
$GPGGA,1494247.66,4334.841573,N,14200.126307,E,1,08,0.9,74.18,M,28.4,M,,,*76
$GPZDA,1494247.66,01,10,2013,00,00*5F
$GPGGA,1494247.67,4334.841569,N,14200.126310,E,1,08,0.9,74.45,M,28.4,M,,,*72
$GPZDA,1494247.67,01,10,2013,00,00*5E
$GPGGA,1494247.68,4334.841565,N,14200.126313,E,1,08,0.9,74.71,M,28.4,M,,,*75
$GPZDA,1494247.68,01,10,2013,00,00*51
$GPGGA,1494247.69,4334.841562,N,14200.126316,E,1,08,0.9,74.98,M,28.4,M,,,*71
$GPZDA,1494247.69,01,10,2013,00,00*50
$GPGGA,1494247.70,4334.841559,N,14200.126319,E,1,08,0.9,75.23,M,28.4,M,,,*7F
$GPZDA,1494247.70,01,10,2013,00,00*58
$GPGGA,1494247.71,4334.841555,N,14200.126322,E,1,08,0.9,75.50,M,28.4,M,,,*7E
$GPZDA,1494247.71,01,10,2013,00,00*59
$GPGGA,1494247.72,4334.841551,N,14200.126325,E,1,08,0.9,75.79,M,28.4,M,,,*75
$GPZDA,1494247.72,01,10,2013,00,00*5A
$GPGGA,1494247.73,4334.841547,N,14200.126328,E,1,08,0.9,76.07,M,28.4,M,,,*74
$GPZDA,1494247.73,01,10,2013,00,00*5B
$GPGGA,1494247.74,4334.841543,N,14200.126331,E,1,08,0.9,76.34,M,28.4,M,,,*7F
$GPZDA,1494247.74,01,10,2013,00,00*5C
$GPGGA,1494247.75,4334.841540,N,14200.126334,E,1,08,0.9,76.61,M,28.4,M,,,*78
$GPZDA,1494247.75,01,10,2013,00,00*5D
$GPGGA,1494247.76,4334.841536,N,14200.126337,E,1,08,0.9,76.88,M,28.4,M,,,*7E
$GPZDA,1494247.76,01,10,2013,00,00*5E
$GPGGA,1494247.77,4334.841532,N,14200.126340,E,1,08,0.9,77.15,M,28.4,M,,,*7E
$GPZDA,1494247.77,01,10,2013,00,00*5F
$GPGGA,1494247.78,4334.841529,N,14200.126342,E,1,08,0.9,77.40,M,28.4,M,,,*79
$GPZDA,1494247.78,01,10,2013,00,00*50
$GPGGA,1494247.79,4334.841524,N,14200.126346,E,1,08,0.9,77.70,M,28.4,M,,,*72
$GPZDA,1494247.79,01,10,2013,00,00*51
$GPGGA,1494247.80,4334.841521,N,14200.126348,E,1,08,0.9,77.97,M,28.4,M,,,*76
$GPZDA,1494247.80,01,10,2013,00,00*57
$GPGGA,1494247.81,4334.841517,N,14200.126351,E,1,08,0.9,78.24,M,28.4,M,,,*7D
$GPZDA,1494247.81,01,10,2013,00,00*56
$GPGGA,1494247.82,4334.841513,N,14200.126354,E,1,08,0.9,78.51,M,28.4,M,,,*7D
$GPZDA,1494247.82,01,10,2013,00,00*55
$GPGGA,1494247.83,4334.841509,N,14200.126357,E,1,08,0.9,78.79,M,28.4,M,,,*7E
$GPZDA,1494247.83,01,10,2013,00,00*54
$GPGGA,1494247.84,4334.841505,N,14200.126359,E,1,08,0.9,79.06,M,28.4,M,,,*72
$GPZDA,1494247.84,01,10,2013,00,00*53
$GPGGA,1494247.85,4334.841501,N,14200.126362,E,1,08,0.9,79.33,M,28.4,M,,,*79
$GPZDA,1494247.85,01,10,2013,00,00*52
$GPGGA,1494247.86,4334.841498,N,14200.126365,E,1,08,0.9,79.61,M,28.4,M,,,*7B
$GPZDA,1494247.86,01,10,2013,00,00*51
$GPGGA,1494247.87,4334.841494,N,14200.126368,E,1,08,0.9,79.88,M,28.4,M,,,*7C
$GPZDA,1494247.87,01,10,2013,00,00*50
$GPGGA,1494247.88,4334.841490,N,14200.126370,E,1,08,0.9,80.15,M,28.4,M,,,*7C
$GPZDA,1494247.88,01,10,2013,00,00*5F
$GPGGA,1494247.89,4334.841486,N,14200.126373,E,1,08,0.9,80.43,M,28.4,M,,,*7A
$GPZDA,1494247.89,01,10,2013,00,00*5E
$GPGGA,1494247.90,4334.841482,N,14200.126376,E,1,08,0.9,80.70,M,28.4,M,,,*73
$GPZDA,1494247.90,01,10,2013,00,00*56
$GPGGA,1494247.91,4334.841478,N,14200.126378,E,1,08,0.9,80.97,M,28.4,M,,,*70
$GPZDA,1494247.91,01,10,2013,00,00*57
$GPGGA,1494247.92,4334.841475,N,14200.126381,E,1,08,0.9,81.22,M,28.4,M,,,*77
$GPZDA,1494247.92,01,10,2013,00,00*54
$GPGGA,1494247.93,4334.841471,N,14200.126383,E,1,08,0.9,81.50,M,28.4,M,,,*75
$GPZDA,1494247.93,01,10,2013,00,00*55
$GPGGA,1494247.94,4334.841467,N,14200.126386,E,1,08,0.9,81.80,M,28.4,M,,,*7D
$GPZDA,1494247.94,01,10,2013,00,00*52
$GPGGA,1494247.95,4334.841463,N,14200.126388,E,1,08,0.9,82.07,M,28.4,M,,,*7A
$GPZDA,1494247.95,01,10,2013,00,00*53
$GPGGA,1494247.96,4334.841459,N,14200.126391,E,1,08,0.9,82.35,M,28.4,M,,,*79
$GPZDA,1494247.96,01,10,2013,00,00*50
$GPGGA,1494247.97,4334.841455,N,14200.126393,E,1,08,0.9,82.62,M,28.4,M,,,*74
$GPZDA,1494247.97,01,10,2013,00,00*51
$GPGGA,1494247.98,4334.841451,N,14200.126395,E,1,08,0.9,82.89,M,28.4,M,,,*7C
$GPZDA,1494247.98,01,10,2013,00,00*5E
$GPGGA,1494247.99,4334.841447,N,14200.126397,E,1,08,0.9,83.17,M,28.4,M,,,*7E
$GPZDA,1494247.99,01,10,2013,00,00*5F
$GPGGA,1494248.00,4334.841443,N,14200.126400,E,1,08,0.9,83.44,M,28.4,M,,,*7A
$GPZDA,1494248.00,01,10,2013,00,00*50
$GPGGA,1494248.01,4334.841440,N,14200.126402,E,1,08,0.9,83.72,M,28.4,M,,,*7F
$GPZDA,1494248.01,01,10,2013,00,00*51
$GPGGA,1494248.02,4334.841436,N,14200.126403,E,1,08,0.9,83.97,M,28.4,M,,,*77
$GPZDA,1494248.02,01,10,2013,00,00*52
$GPGGA,1494248.03,4334.841432,N,14200.126405,E,1,08,0.9,84.24,M,28.4,M,,,*7B
$GPZDA,1494248.03,01,10,2013,00,00*53
$GPGGA,1494248.04,4334.841428,N,14200.126407,E,1,08,0.9,84.54,M,28.4,M,,,*72
$GPZDA,1494248.04,01,10,2013,00,00*54
$GPGGA,1494248.05,4334.841424,N,14200.126409,E,1,08,0.9,84.82,M,28.4,M,,,*7A
$GPZDA,1494248.05,01,10,2013,00,00*55
$GPGGA,1494248.06,4334.841420,N,14200.126411,E,1,08,0.9,85.09,M,28.4,M,,,*76
$GPZDA,1494248.06,01,10,2013,00,00*56
$GPGGA,1494248.07,4334.841417,N,14200.126413,E,1,08,0.9,85.36,M,28.4,M,,,*7D
$GPZDA,1494248.07,01,10,2013,00,00*57
$GPGGA,1494248.08,4334.841413,N,14200.126414,E,1,08,0.9,85.64,M,28.4,M,,,*76
$GPZDA,1494248.08,01,10,2013,00,00*58
$GPGGA,1494248.09,4334.841409,N,14200.126416,E,1,08,0.9,85.91,M,28.4,M,,,*74
$GPZDA,1494248.09,01,10,2013,00,00*59
$GPGGA,1494248.10,4334.841405,N,14200.126417,E,1,08,0.9,86.19,M,28.4,M,,,*72
$GPZDA,1494248.10,01,10,2013,00,00*51
$GPGGA,1494248.11,4334.841402,N,14200.126418,E,1,08,0.9,86.43,M,28.4,M,,,*74
$GPZDA,1494248.11,01,10,2013,00,00*50
$GPGGA,1494248.12,4334.841398,N,14200.126420,E,1,08,0.9,86.71,M,28.4,M,,,*79
$GPZDA,1494248.12,01,10,2013,00,00*53
$GPGGA,1494248.13,4334.841394,N,14200.126421,E,1,08,0.9,87.01,M,28.4,M,,,*73
$GPZDA,1494248.13,01,10,2013,00,00*52
$GPGGA,1494248.14,4334.841390,N,14200.126422,E,1,08,0.9,87.28,M,28.4,M,,,*78
$GPZDA,1494248.14,01,10,2013,00,00*55
$GPGGA,1494248.15,4334.841386,N,14200.126423,E,1,08,0.9,87.56,M,28.4,M,,,*76
$GPZDA,1494248.15,01,10,2013,00,00*54
$GPGGA,1494248.16,4334.841382,N,14200.126425,E,1,08,0.9,87.83,M,28.4,M,,,*7F
$GPZDA,1494248.16,01,10,2013,00,00*57
$GPGGA,1494248.17,4334.841379,N,14200.126426,E,1,08,0.9,88.10,M,28.4,M,,,*7C
$GPZDA,1494248.17,01,10,2013,00,00*56
$GPGGA,1494248.18,4334.841375,N,14200.126426,E,1,08,0.9,88.38,M,28.4,M,,,*75
$GPZDA,1494248.18,01,10,2013,00,00*59
$GPGGA,1494248.19,4334.841371,N,14200.126427,E,1,08,0.9,88.65,M,28.4,M,,,*79
$GPZDA,1494248.19,01,10,2013,00,00*58
$GPGGA,1494248.20,4334.841367,N,14200.126428,E,1,08,0.9,88.92,M,28.4,M,,,*73
$GPZDA,1494248.20,01,10,2013,00,00*52
$GPGGA,1494248.21,4334.841363,N,14200.126429,E,1,08,0.9,89.17,M,28.4,M,,,*7B
$GPZDA,1494248.21,01,10,2013,00,00*53
$GPGGA,1494248.22,4334.841359,N,14200.126430,E,1,08,0.9,89.44,M,28.4,M,,,*7F
$GPZDA,1494248.22,01,10,2013,00,00*50
$GPGGA,1494248.23,4334.841355,N,14200.126430,E,1,08,0.9,89.74,M,28.4,M,,,*71
$GPZDA,1494248.23,01,10,2013,00,00*51
$GPGGA,1494248.24,4334.841351,N,14200.126431,E,1,08,0.9,90.01,M,28.4,M,,,*79
$GPZDA,1494248.24,01,10,2013,00,00*56
$GPGGA,1494248.25,4334.841347,N,14200.126431,E,1,08,0.9,90.28,M,28.4,M,,,*74
$GPZDA,1494248.25,01,10,2013,00,00*57
$GPGGA,1494248.26,4334.841343,N,14200.126432,E,1,08,0.9,90.56,M,28.4,M,,,*79
$GPZDA,1494248.26,01,10,2013,00,00*54
$GPGGA,1494248.27,4334.841339,N,14200.126432,E,1,08,0.9,90.83,M,28.4,M,,,*7D
$GPZDA,1494248.27,01,10,2013,00,00*55
$GPGGA,1494248.28,4334.841335,N,14200.126432,E,1,08,0.9,91.10,M,28.4,M,,,*75
$GPZDA,1494248.28,01,10,2013,00,00*5A
$GPGGA,1494248.29,4334.841332,N,14200.126433,E,1,08,0.9,91.34,M,28.4,M,,,*74
$GPZDA,1494248.29,01,10,2013,00,00*5B
$GPGGA,1494248.30,4334.841328,N,14200.126433,E,1,08,0.9,91.61,M,28.4,M,,,*77
$GPZDA,1494248.30,01,10,2013,00,00*53
$GPGGA,1494248.31,4334.841324,N,14200.126433,E,1,08,0.9,91.91,M,28.4,M,,,*75
$GPZDA,1494248.31,01,10,2013,00,00*52
$GPGGA,1494248.32,4334.841320,N,14200.126433,E,1,08,0.9,92.18,M,28.4,M,,,*70
$GPZDA,1494248.32,01,10,2013,00,00*51
$GPGGA,1494248.33,4334.841315,N,14200.126433,E,1,08,0.9,92.45,M,28.4,M,,,*7F
$GPZDA,1494248.33,01,10,2013,00,00*50
$GPGGA,1494248.34,4334.841311,N,14200.126433,E,1,08,0.9,92.72,M,28.4,M,,,*78
$GPZDA,1494248.34,01,10,2013,00,00*57
$GPGGA,1494248.35,4334.841307,N,14200.126433,E,1,08,0.9,92.99,M,28.4,M,,,*7B
$GPZDA,1494248.35,01,10,2013,00,00*56
$GPGGA,1494248.36,4334.841303,N,14200.126433,E,1,08,0.9,93.26,M,28.4,M,,,*79
$GPZDA,1494248.36,01,10,2013,00,00*55
$GPGGA,1494248.37,4334.841299,N,14200.126432,E,1,08,0.9,93.53,M,28.4,M,,,*79
$GPZDA,1494248.37,01,10,2013,00,00*54
$GPGGA,1494248.38,4334.841295,N,14200.126432,E,1,08,0.9,93.77,M,28.4,M,,,*7C
$GPZDA,1494248.38,01,10,2013,00,00*5B
$GPGGA,1494248.39,4334.841291,N,14200.126432,E,1,08,0.9,94.04,M,28.4,M,,,*7A
$GPZDA,1494248.39,01,10,2013,00,00*5A
$GPGGA,1494248.40,4334.841287,N,14200.126431,E,1,08,0.9,94.34,M,28.4,M,,,*73
$GPZDA,1494248.40,01,10,2013,00,00*54
$GPGGA,1494248.41,4334.841282,N,14200.126431,E,1,08,0.9,94.61,M,28.4,M,,,*77
$GPZDA,1494248.41,01,10,2013,00,00*55
$GPGGA,1494248.42,4334.841278,N,14200.126431,E,1,08,0.9,94.87,M,28.4,M,,,*79
$GPZDA,1494248.42,01,10,2013,00,00*56
$GPGGA,1494248.43,4334.841274,N,14200.126430,E,1,08,0.9,95.14,M,28.4,M,,,*7E
$GPZDA,1494248.43,01,10,2013,00,00*57
$GPGGA,1494248.44,4334.841270,N,14200.126430,E,1,08,0.9,95.41,M,28.4,M,,,*7D
$GPZDA,1494248.44,01,10,2013,00,00*50
$GPGGA,1494248.45,4334.841265,N,14200.126429,E,1,08,0.9,95.67,M,28.4,M,,,*74
$GPZDA,1494248.45,01,10,2013,00,00*51
$GPGGA,1494248.46,4334.841261,N,14200.126428,E,1,08,0.9,95.94,M,28.4,M,,,*7E
$GPZDA,1494248.46,01,10,2013,00,00*52
$GPGGA,1494248.47,4334.841257,N,14200.126428,E,1,08,0.9,96.21,M,28.4,M,,,*77
$GPZDA,1494248.47,01,10,2013,00,00*53
$GPGGA,1494248.48,4334.841253,N,14200.126427,E,1,08,0.9,96.45,M,28.4,M,,,*71
$GPZDA,1494248.48,01,10,2013,00,00*5C
$GPGGA,1494248.49,4334.841248,N,14200.126427,E,1,08,0.9,96.74,M,28.4,M,,,*78
$GPZDA,1494248.49,01,10,2013,00,00*5D
$GPGGA,1494248.50,4334.841244,N,14200.126426,E,1,08,0.9,97.00,M,28.4,M,,,*7F
$GPZDA,1494248.50,01,10,2013,00,00*55
$GPGGA,1494248.51,4334.841239,N,14200.126425,E,1,08,0.9,97.27,M,28.4,M,,,*72
$GPZDA,1494248.51,01,10,2013,00,00*54
$GPGGA,1494248.52,4334.841235,N,14200.126424,E,1,08,0.9,97.53,M,28.4,M,,,*7F
$GPZDA,1494248.52,01,10,2013,00,00*57
$GPGGA,1494248.53,4334.841230,N,14200.126424,E,1,08,0.9,97.80,M,28.4,M,,,*75
$GPZDA,1494248.53,01,10,2013,00,00*56
$GPGGA,1494248.54,4334.841226,N,14200.126423,E,1,08,0.9,98.06,M,28.4,M,,,*73
$GPZDA,1494248.54,01,10,2013,00,00*51
$GPGGA,1494248.55,4334.841222,N,14200.126422,E,1,08,0.9,98.30,M,28.4,M,,,*72
$GPZDA,1494248.55,01,10,2013,00,00*50
$GPGGA,1494248.56,4334.841217,N,14200.126421,E,1,08,0.9,98.56,M,28.4,M,,,*74
$GPZDA,1494248.56,01,10,2013,00,00*53
$GPGGA,1494248.57,4334.841212,N,14200.126420,E,1,08,0.9,98.85,M,28.4,M,,,*7F
$GPZDA,1494248.57,01,10,2013,00,00*52
$GPGGA,1494248.58,4334.841208,N,14200.126420,E,1,08,0.9,99.11,M,28.4,M,,,*77
$GPZDA,1494248.58,01,10,2013,00,00*5D
$GPGGA,1494248.59,4334.841203,N,14200.126419,E,1,08,0.9,99.38,M,28.4,M,,,*7C
$GPZDA,1494248.59,01,10,2013,00,00*5C
$GPGGA,1494248.60,4334.841199,N,14200.126418,E,1,08,0.9,99.64,M,28.4,M,,,*7E
$GPZDA,1494248.60,01,10,2013,00,00*56
$GPGGA,1494248.61,4334.841194,N,14200.126417,E,1,08,0.9,99.90,M,28.4,M,,,*76
$GPZDA,1494248.61,01,10,2013,00,00*57
$GPGGA,1494248.62,4334.841189,N,14200.126416,E,1,08,0.9,100.16,M,28.4,M,,,*47
$GPZDA,1494248.62,01,10,2013,00,00*54
$GPGGA,1494248.63,4334.841185,N,14200.126416,E,1,08,0.9,100.42,M,28.4,M,,,*4B
$GPZDA,1494248.63,01,10,2013,00,00*55
$GPGGA,1494248.64,4334.841180,N,14200.126415,E,1,08,0.9,100.68,M,28.4,M,,,*42
$GPZDA,1494248.64,01,10,2013,00,00*52
$GPGGA,1494248.65,4334.841175,N,14200.126414,E,1,08,0.9,100.94,M,28.4,M,,,*4B
$GPZDA,1494248.65,01,10,2013,00,00*53
$GPGGA,1494248.66,4334.841171,N,14200.126413,E,1,08,0.9,101.20,M,28.4,M,,,*45
$GPZDA,1494248.66,01,10,2013,00,00*50
$GPGGA,1494248.67,4334.841166,N,14200.126412,E,1,08,0.9,101.46,M,28.4,M,,,*43
$GPZDA,1494248.67,01,10,2013,00,00*51
$GPGGA,1494248.68,4334.841161,N,14200.126412,E,1,08,0.9,101.71,M,28.4,M,,,*4F
$GPZDA,1494248.68,01,10,2013,00,00*5E
$GPGGA,1494248.69,4334.841156,N,14200.126411,E,1,08,0.9,101.97,M,28.4,M,,,*41
$GPZDA,1494248.69,01,10,2013,00,00*5F
$GPGGA,1494248.70,4334.841152,N,14200.126410,E,1,08,0.9,102.23,M,28.4,M,,,*40
$GPZDA,1494248.70,01,10,2013,00,00*57
$GPGGA,1494248.71,4334.841147,N,14200.126409,E,1,08,0.9,102.49,M,28.4,M,,,*41
$GPZDA,1494248.71,01,10,2013,00,00*56
$GPGGA,1494248.72,4334.841142,N,14200.126408,E,1,08,0.9,102.74,M,28.4,M,,,*48
$GPZDA,1494248.72,01,10,2013,00,00*55
$GPGGA,1494248.73,4334.841138,N,14200.126407,E,1,08,0.9,102.97,M,28.4,M,,,*46
$GPZDA,1494248.73,01,10,2013,00,00*54
$GPGGA,1494248.74,4334.841133,N,14200.126407,E,1,08,0.9,103.23,M,28.4,M,,,*44
$GPZDA,1494248.74,01,10,2013,00,00*53
$GPGGA,1494248.75,4334.841127,N,14200.126406,E,1,08,0.9,103.51,M,28.4,M,,,*44
$GPZDA,1494248.75,01,10,2013,00,00*52
$GPGGA,1494248.76,4334.841123,N,14200.126405,E,1,08,0.9,103.76,M,28.4,M,,,*45
$GPZDA,1494248.76,01,10,2013,00,00*51
$GPGGA,1494248.77,4334.841118,N,14200.126404,E,1,08,0.9,104.02,M,28.4,M,,,*49
$GPZDA,1494248.77,01,10,2013,00,00*50
$GPGGA,1494248.78,4334.841113,N,14200.126403,E,1,08,0.9,104.27,M,28.4,M,,,*4D
$GPZDA,1494248.78,01,10,2013,00,00*5F
$GPGGA,1494248.79,4334.841108,N,14200.126402,E,1,08,0.9,104.53,M,28.4,M,,,*44
$GPZDA,1494248.79,01,10,2013,00,00*5E
$GPGGA,1494248.80,4334.841103,N,14200.126401,E,1,08,0.9,104.78,M,28.4,M,,,*43
$GPZDA,1494248.80,01,10,2013,00,00*58
$GPGGA,1494248.81,4334.841099,N,14200.126400,E,1,08,0.9,105.01,M,28.4,M,,,*4E
$GPZDA,1494248.81,01,10,2013,00,00*59
$GPGGA,1494248.82,4334.841094,N,14200.126399,E,1,08,0.9,105.26,M,28.4,M,,,*42
$GPZDA,1494248.82,01,10,2013,00,00*5A
$GPGGA,1494248.83,4334.841088,N,14200.126398,E,1,08,0.9,105.53,M,28.4,M,,,*4D
$GPZDA,1494248.83,01,10,2013,00,00*5B
$GPGGA,1494248.84,4334.841083,N,14200.126397,E,1,08,0.9,105.78,M,28.4,M,,,*47
$GPZDA,1494248.84,01,10,2013,00,00*5C
$GPGGA,1494248.85,4334.841078,N,14200.126396,E,1,08,0.9,106.03,M,28.4,M,,,*4C
$GPZDA,1494248.85,01,10,2013,00,00*5D
$GPGGA,1494248.86,4334.841073,N,14200.126395,E,1,08,0.9,106.28,M,28.4,M,,,*4E
$GPZDA,1494248.86,01,10,2013,00,00*5E
$GPGGA,1494248.87,4334.841068,N,14200.126394,E,1,08,0.9,106.53,M,28.4,M,,,*48
$GPZDA,1494248.87,01,10,2013,00,00*5F
$GPGGA,1494248.88,4334.841063,N,14200.126393,E,1,08,0.9,106.78,M,28.4,M,,,*42
$GPZDA,1494248.88,01,10,2013,00,00*50
$GPGGA,1494248.89,4334.841058,N,14200.126392,E,1,08,0.9,107.03,M,28.4,M,,,*47
$GPZDA,1494248.89,01,10,2013,00,00*51
$GPGGA,1494248.90,4334.841053,N,14200.126391,E,1,08,0.9,107.25,M,28.4,M,,,*43
$GPZDA,1494248.90,01,10,2013,00,00*59
$GPGGA,1494248.91,4334.841048,N,14200.126390,E,1,08,0.9,107.50,M,28.4,M,,,*4B
$GPZDA,1494248.91,01,10,2013,00,00*58
$GPGGA,1494248.92,4334.841043,N,14200.126389,E,1,08,0.9,107.77,M,28.4,M,,,*4E
$GPZDA,1494248.92,01,10,2013,00,00*5B
$GPGGA,1494248.93,4334.841038,N,14200.126388,E,1,08,0.9,108.02,M,28.4,M,,,*4F
$GPZDA,1494248.93,01,10,2013,00,00*5A
$GPGGA,1494248.94,4334.841033,N,14200.126387,E,1,08,0.9,108.26,M,28.4,M,,,*4A
$GPZDA,1494248.94,01,10,2013,00,00*5D
$GPGGA,1494248.95,4334.841027,N,14200.126386,E,1,08,0.9,108.51,M,28.4,M,,,*4F
$GPZDA,1494248.95,01,10,2013,00,00*5C
$GPGGA,1494248.96,4334.841022,N,14200.126385,E,1,08,0.9,108.75,M,28.4,M,,,*4C
$GPZDA,1494248.96,01,10,2013,00,00*5F
$GPGGA,1494248.97,4334.841017,N,14200.126384,E,1,08,0.9,109.00,M,28.4,M,,,*49
$GPZDA,1494248.97,01,10,2013,00,00*5E
$GPGGA,1494248.98,4334.841012,N,14200.126383,E,1,08,0.9,109.24,M,28.4,M,,,*42
$GPZDA,1494248.98,01,10,2013,00,00*51
$GPGGA,1494248.99,4334.841007,N,14200.126383,E,1,08,0.9,109.46,M,28.4,M,,,*43
$GPZDA,1494248.99,01,10,2013,00,00*50
$GPGGA,1494249.00,4334.841002,N,14200.126382,E,1,08,0.9,109.70,M,28.4,M,,,*43
$GPZDA,1494249.00,01,10,2013,00,00*51
$GPGGA,1494249.01,4334.840997,N,14200.126381,E,1,08,0.9,109.97,M,28.4,M,,,*4C
$GPZDA,1494249.01,01,10,2013,00,00*50
$GPGGA,1494249.02,4334.840991,N,14200.126380,E,1,08,0.9,110.21,M,28.4,M,,,*4D
$GPZDA,1494249.02,01,10,2013,00,00*53
$GPGGA,1494249.03,4334.840986,N,14200.126379,E,1,08,0.9,110.45,M,28.4,M,,,*4E
$GPZDA,1494249.03,01,10,2013,00,00*52
$GPGGA,1494249.04,4334.840981,N,14200.126378,E,1,08,0.9,110.69,M,28.4,M,,,*41
$GPZDA,1494249.04,01,10,2013,00,00*55
$GPGGA,1494249.05,4334.840976,N,14200.126377,E,1,08,0.9,110.93,M,28.4,M,,,*42
$GPZDA,1494249.05,01,10,2013,00,00*54
$GPGGA,1494249.06,4334.840971,N,14200.126375,E,1,08,0.9,111.17,M,28.4,M,,,*49
$GPZDA,1494249.06,01,10,2013,00,00*57
$GPGGA,1494249.07,4334.840966,N,14200.126374,E,1,08,0.9,111.40,M,28.4,M,,,*4D
$GPZDA,1494249.07,01,10,2013,00,00*56
$GPGGA,1494249.08,4334.840961,N,14200.126373,E,1,08,0.9,111.64,M,28.4,M,,,*44
$GPZDA,1494249.08,01,10,2013,00,00*59
$GPGGA,1494249.09,4334.840956,N,14200.126372,E,1,08,0.9,111.85,M,28.4,M,,,*4F
$GPZDA,1494249.09,01,10,2013,00,00*58
$GPGGA,1494249.10,4334.840951,N,14200.126371,E,1,08,0.9,112.09,M,28.4,M,,,*44
$GPZDA,1494249.10,01,10,2013,00,00*50
$GPGGA,1494249.11,4334.840946,N,14200.126370,E,1,08,0.9,112.35,M,28.4,M,,,*4D
$GPZDA,1494249.11,01,10,2013,00,00*51
$GPGGA,1494249.12,4334.840941,N,14200.126369,E,1,08,0.9,112.59,M,28.4,M,,,*4B
$GPZDA,1494249.12,01,10,2013,00,00*52
$GPGGA,1494249.13,4334.840935,N,14200.126368,E,1,08,0.9,112.82,M,28.4,M,,,*4E
$GPZDA,1494249.13,01,10,2013,00,00*53
$GPGGA,1494249.14,4334.840930,N,14200.126367,E,1,08,0.9,113.05,M,28.4,M,,,*4D
$GPZDA,1494249.14,01,10,2013,00,00*54
$GPGGA,1494249.15,4334.840925,N,14200.126366,E,1,08,0.9,113.29,M,28.4,M,,,*47
$GPZDA,1494249.15,01,10,2013,00,00*55
$GPGGA,1494249.16,4334.840920,N,14200.126365,E,1,08,0.9,113.52,M,28.4,M,,,*4E
$GPZDA,1494249.16,01,10,2013,00,00*56
$GPGGA,1494249.17,4334.840916,N,14200.126364,E,1,08,0.9,113.73,M,28.4,M,,,*48
$GPZDA,1494249.17,01,10,2013,00,00*57
$GPGGA,1494249.18,4334.840910,N,14200.126362,E,1,08,0.9,113.98,M,28.4,M,,,*42
$GPZDA,1494249.18,01,10,2013,00,00*58
$GPGGA,1494249.19,4334.840905,N,14200.126361,E,1,08,0.9,114.22,M,28.4,M,,,*42
$GPZDA,1494249.19,01,10,2013,00,00*59
$GPGGA,1494249.20,4334.840900,N,14200.126360,E,1,08,0.9,114.45,M,28.4,M,,,*4D
$GPZDA,1494249.20,01,10,2013,00,00*53
$GPGGA,1494249.21,4334.840895,N,14200.126359,E,1,08,0.9,114.68,M,28.4,M,,,*44
$GPZDA,1494249.21,01,10,2013,00,00*52
$GPGGA,1494249.22,4334.840890,N,14200.126358,E,1,08,0.9,114.90,M,28.4,M,,,*44
$GPZDA,1494249.22,01,10,2013,00,00*51
$GPGGA,1494249.23,4334.840884,N,14200.126356,E,1,08,0.9,115.13,M,28.4,M,,,*44
$GPZDA,1494249.23,01,10,2013,00,00*50
$GPGGA,1494249.24,4334.840879,N,14200.126355,E,1,08,0.9,115.36,M,28.4,M,,,*45
$GPZDA,1494249.24,01,10,2013,00,00*57
$GPGGA,1494249.25,4334.840874,N,14200.126354,E,1,08,0.9,115.59,M,28.4,M,,,*41
$GPZDA,1494249.25,01,10,2013,00,00*56
$GPGGA,1494249.26,4334.840869,N,14200.126353,E,1,08,0.9,115.81,M,28.4,M,,,*4C
$GPZDA,1494249.26,01,10,2013,00,00*55
$GPGGA,1494249.27,4334.840864,N,14200.126351,E,1,08,0.9,116.04,M,28.4,M,,,*4C
$GPZDA,1494249.27,01,10,2013,00,00*54
$GPGGA,1494249.28,4334.840859,N,14200.126350,E,1,08,0.9,116.27,M,28.4,M,,,*4D
$GPZDA,1494249.28,01,10,2013,00,00*5B
$GPGGA,1494249.29,4334.840853,N,14200.126349,E,1,08,0.9,116.49,M,28.4,M,,,*46
$GPZDA,1494249.29,01,10,2013,00,00*5A
$GPGGA,1494249.30,4334.840848,N,14200.126347,E,1,08,0.9,116.71,M,28.4,M,,,*41
$GPZDA,1494249.30,01,10,2013,00,00*52
$GPGGA,1494249.31,4334.840843,N,14200.126346,E,1,08,0.9,116.94,M,28.4,M,,,*41
$GPZDA,1494249.31,01,10,2013,00,00*53
$GPGGA,1494249.32,4334.840838,N,14200.126345,E,1,08,0.9,117.16,M,28.4,M,,,*46
$GPZDA,1494249.32,01,10,2013,00,00*50
$GPGGA,1494249.33,4334.840833,N,14200.126344,E,1,08,0.9,117.36,M,28.4,M,,,*4F
$GPZDA,1494249.33,01,10,2013,00,00*51
$GPGGA,1494249.34,4334.840827,N,14200.126342,E,1,08,0.9,117.60,M,28.4,M,,,*48
$GPZDA,1494249.34,01,10,2013,00,00*56
$GPGGA,1494249.35,4334.840822,N,14200.126341,E,1,08,0.9,117.82,M,28.4,M,,,*43
$GPZDA,1494249.35,01,10,2013,00,00*57
$GPGGA,1494249.36,4334.840817,N,14200.126339,E,1,08,0.9,118.04,M,28.4,M,,,*48
$GPZDA,1494249.36,01,10,2013,00,00*54
$GPGGA,1494249.37,4334.840811,N,14200.126338,E,1,08,0.9,118.26,M,28.4,M,,,*4E
$GPZDA,1494249.37,01,10,2013,00,00*55
$GPGGA,1494249.38,4334.840806,N,14200.126336,E,1,08,0.9,118.48,M,28.4,M,,,*41
$GPZDA,1494249.38,01,10,2013,00,00*5A
$GPGGA,1494249.39,4334.840801,N,14200.126335,E,1,08,0.9,118.70,M,28.4,M,,,*4F
$GPZDA,1494249.39,01,10,2013,00,00*5B
$GPGGA,1494249.40,4334.840796,N,14200.126333,E,1,08,0.9,118.92,M,28.4,M,,,*4A
$GPZDA,1494249.40,01,10,2013,00,00*55
$GPGGA,1494249.41,4334.840791,N,14200.126332,E,1,08,0.9,119.11,M,28.4,M,,,*47
$GPZDA,1494249.41,01,10,2013,00,00*54
$GPGGA,1494249.42,4334.840786,N,14200.126330,E,1,08,0.9,119.33,M,28.4,M,,,*40
$GPZDA,1494249.42,01,10,2013,00,00*57
$GPGGA,1494249.43,4334.840780,N,14200.126329,E,1,08,0.9,119.56,M,28.4,M,,,*4C
$GPZDA,1494249.43,01,10,2013,00,00*56
$GPGGA,1494249.44,4334.840775,N,14200.126327,E,1,08,0.9,119.78,M,28.4,M,,,*43
$GPZDA,1494249.44,01,10,2013,00,00*51
$GPGGA,1494249.45,4334.840769,N,14200.126325,E,1,08,0.9,119.99,M,28.4,M,,,*42
$GPZDA,1494249.45,01,10,2013,00,00*50
$GPGGA,1494249.46,4334.840764,N,14200.126324,E,1,08,0.9,120.20,M,28.4,M,,,*45
$GPZDA,1494249.46,01,10,2013,00,00*53
$GPGGA,1494249.47,4334.840759,N,14200.126322,E,1,08,0.9,120.42,M,28.4,M,,,*48
$GPZDA,1494249.47,01,10,2013,00,00*52
$GPGGA,1494249.48,4334.840753,N,14200.126320,E,1,08,0.9,120.63,M,28.4,M,,,*4C
$GPZDA,1494249.48,01,10,2013,00,00*5D
$GPGGA,1494249.49,4334.840748,N,14200.126319,E,1,08,0.9,120.84,M,28.4,M,,,*44
$GPZDA,1494249.49,01,10,2013,00,00*5C
$GPGGA,1494249.50,4334.840743,N,14200.126317,E,1,08,0.9,121.05,M,28.4,M,,,*41
$GPZDA,1494249.50,01,10,2013,00,00*54
$GPGGA,1494249.51,4334.840738,N,14200.126315,E,1,08,0.9,121.24,M,28.4,M,,,*4D
$GPZDA,1494249.51,01,10,2013,00,00*55
$GPGGA,1494249.52,4334.840733,N,14200.126313,E,1,08,0.9,121.45,M,28.4,M,,,*44
$GPZDA,1494249.52,01,10,2013,00,00*56
$GPGGA,1494249.53,4334.840727,N,14200.126311,E,1,08,0.9,121.67,M,28.4,M,,,*42
$GPZDA,1494249.53,01,10,2013,00,00*57
$GPGGA,1494249.54,4334.840722,N,14200.126309,E,1,08,0.9,121.88,M,28.4,M,,,*48
$GPZDA,1494249.54,01,10,2013,00,00*50
$GPGGA,1494249.55,4334.840716,N,14200.126307,E,1,08,0.9,122.09,M,28.4,M,,,*4A
$GPZDA,1494249.55,01,10,2013,00,00*51
$GPGGA,1494249.56,4334.840711,N,14200.126305,E,1,08,0.9,122.29,M,28.4,M,,,*4E
$GPZDA,1494249.56,01,10,2013,00,00*52
$GPGGA,1494249.57,4334.840706,N,14200.126303,E,1,08,0.9,122.50,M,28.4,M,,,*41
$GPZDA,1494249.57,01,10,2013,00,00*53
$GPGGA,1494249.58,4334.840700,N,14200.126301,E,1,08,0.9,122.70,M,28.4,M,,,*48
$GPZDA,1494249.58,01,10,2013,00,00*5C
$GPGGA,1494249.59,4334.840695,N,14200.126299,E,1,08,0.9,122.91,M,28.4,M,,,*4B
$GPZDA,1494249.59,01,10,2013,00,00*5D
$GPGGA,1494249.60,4334.840690,N,14200.126297,E,1,08,0.9,123.11,M,28.4,M,,,*43
$GPZDA,1494249.60,01,10,2013,00,00*57
$GPGGA,1494249.61,4334.840685,N,14200.126295,E,1,08,0.9,123.29,M,28.4,M,,,*4F
$GPZDA,1494249.61,01,10,2013,00,00*56
$GPGGA,1494249.62,4334.840679,N,14200.126293,E,1,08,0.9,123.51,M,28.4,M,,,*46
$GPZDA,1494249.62,01,10,2013,00,00*55
$GPGGA,1494249.63,4334.840674,N,14200.126291,E,1,08,0.9,123.71,M,28.4,M,,,*4A
$GPZDA,1494249.63,01,10,2013,00,00*54
$GPGGA,1494249.64,4334.840669,N,14200.126289,E,1,08,0.9,123.91,M,28.4,M,,,*46
$GPZDA,1494249.64,01,10,2013,00,00*53
$GPGGA,1494249.65,4334.840663,N,14200.126287,E,1,08,0.9,124.11,M,28.4,M,,,*4C
$GPZDA,1494249.65,01,10,2013,00,00*52
$GPGGA,1494249.66,4334.840658,N,14200.126285,E,1,08,0.9,124.31,M,28.4,M,,,*47
$GPZDA,1494249.66,01,10,2013,00,00*51
$GPGGA,1494249.67,4334.840653,N,14200.126283,E,1,08,0.9,124.51,M,28.4,M,,,*4D
$GPZDA,1494249.67,01,10,2013,00,00*50
$GPGGA,1494249.68,4334.840648,N,14200.126281,E,1,08,0.9,124.69,M,28.4,M,,,*41
$GPZDA,1494249.68,01,10,2013,00,00*5F
$GPGGA,1494249.69,4334.840643,N,14200.126279,E,1,08,0.9,124.88,M,28.4,M,,,*43
$GPZDA,1494249.69,01,10,2013,00,00*5E
$GPGGA,1494249.70,4334.840637,N,14200.126277,E,1,08,0.9,125.10,M,28.4,M,,,*46
$GPZDA,1494249.70,01,10,2013,00,00*56
$GPGGA,1494249.71,4334.840632,N,14200.126275,E,1,08,0.9,125.29,M,28.4,M,,,*4A
$GPZDA,1494249.71,01,10,2013,00,00*57
$GPGGA,1494249.72,4334.840627,N,14200.126272,E,1,08,0.9,125.49,M,28.4,M,,,*4C
$GPZDA,1494249.72,01,10,2013,00,00*54
$GPGGA,1494249.73,4334.840622,N,14200.126270,E,1,08,0.9,125.68,M,28.4,M,,,*49
$GPZDA,1494249.73,01,10,2013,00,00*55
$GPGGA,1494249.74,4334.840617,N,14200.126268,E,1,08,0.9,125.87,M,28.4,M,,,*40
$GPZDA,1494249.74,01,10,2013,00,00*52
$GPGGA,1494249.75,4334.840611,N,14200.126266,E,1,08,0.9,126.06,M,28.4,M,,,*43
$GPZDA,1494249.75,01,10,2013,00,00*53
$GPGGA,1494249.76,4334.840606,N,14200.126264,E,1,08,0.9,126.25,M,28.4,M,,,*45
$GPZDA,1494249.76,01,10,2013,00,00*50
$GPGGA,1494249.77,4334.840601,N,14200.126262,E,1,08,0.9,126.44,M,28.4,M,,,*42
$GPZDA,1494249.77,01,10,2013,00,00*51
$GPGGA,1494249.78,4334.840596,N,14200.126260,E,1,08,0.9,126.62,M,28.4,M,,,*46
$GPZDA,1494249.78,01,10,2013,00,00*5E
$GPGGA,1494249.79,4334.840591,N,14200.126258,E,1,08,0.9,126.80,M,28.4,M,,,*47
$GPZDA,1494249.79,01,10,2013,00,00*5F
$GPGGA,1494249.80,4334.840585,N,14200.126255,E,1,08,0.9,127.01,M,28.4,M,,,*41
$GPZDA,1494249.80,01,10,2013,00,00*59
$GPGGA,1494249.81,4334.840580,N,14200.126253,E,1,08,0.9,127.20,M,28.4,M,,,*40
