$GPGGA,050010.00,3529.179800,N,13846.765320,E,1,08,0.9,800.00,M,28.4,M,,,*74
$GPZDA,050010.00,19,10,2013,00,00*6B
$GPGGA,050010.01,3529.179800,N,13846.765320,E,1,08,0.9,800.00,M,28.4,M,,,*75
$GPZDA,050010.01,19,10,2013,00,00*6A
$GPGGA,050010.02,3529.179800,N,13846.765320,E,1,08,0.9,800.00,M,28.4,M,,,*76
$GPZDA,050010.02,19,10,2013,00,00*69
$GPGGA,050010.03,3529.179800,N,13846.765320,E,1,08,0.9,799.99,M,28.4,M,,,*78
$GPZDA,050010.03,19,10,2013,00,00*68
$GPGGA,050010.04,3529.179800,N,13846.765320,E,1,08,0.9,799.99,M,28.4,M,,,*7F
$GPZDA,050010.04,19,10,2013,00,00*6F
$GPGGA,050010.05,3529.179800,N,13846.765320,E,1,08,0.9,799.99,M,28.4,M,,,*7E
$GPZDA,050010.05,19,10,2013,00,00*6E
$GPGGA,050010.06,3529.179800,N,13846.765320,E,1,08,0.9,799.98,M,28.4,M,,,*7C
$GPZDA,050010.06,19,10,2013,00,00*6D
$GPGGA,050010.07,3529.179800,N,13846.765320,E,1,08,0.9,799.98,M,28.4,M,,,*7D
$GPZDA,050010.07,19,10,2013,00,00*6C
$GPGGA,050010.08,3529.179800,N,13846.765320,E,1,08,0.9,799.97,M,28.4,M,,,*7D
$GPZDA,050010.08,19,10,2013,00,00*63
$GPGGA,050010.09,3529.179800,N,13846.765320,E,1,08,0.9,799.97,M,28.4,M,,,*7C
$GPZDA,050010.09,19,10,2013,00,00*62
$GPGGA,050010.10,3529.179800,N,13846.765320,E,1,08,0.9,799.96,M,28.4,M,,,*75
$GPZDA,050010.10,19,10,2013,00,00*6A
$GPGGA,050010.11,3529.179800,N,13846.765320,E,1,08,0.9,799.95,M,28.4,M,,,*77
$GPZDA,050010.11,19,10,2013,00,00*6B
$GPGGA,050010.12,3529.179800,N,13846.765320,E,1,08,0.9,799.95,M,28.4,M,,,*74
$GPZDA,050010.12,19,10,2013,00,00*68
$GPGGA,050010.13,3529.179800,N,13846.765320,E,1,08,0.9,799.94,M,28.4,M,,,*74
$GPZDA,050010.13,19,10,2013,00,00*69
$GPGGA,050010.14,3529.179800,N,13846.765320,E,1,08,0.9,799.93,M,28.4,M,,,*74
$GPZDA,050010.14,19,10,2013,00,00*6E
$GPGGA,050010.15,3529.179800,N,13846.765319,E,1,08,0.9,799.92,M,28.4,M,,,*7E
$GPZDA,050010.15,19,10,2013,00,00*6F
$GPGGA,050010.16,3529.179800,N,13846.765319,E,1,08,0.9,799.92,M,28.4,M,,,*7D
$GPZDA,050010.16,19,10,2013,00,00*6C
$GPGGA,050010.17,3529.179800,N,13846.765319,E,1,08,0.9,799.91,M,28.4,M,,,*7F
$GPZDA,050010.17,19,10,2013,00,00*6D
$GPGGA,050010.18,3529.179799,N,13846.765319,E,1,08,0.9,799.90,M,28.4,M,,,*7E
$GPZDA,050010.18,19,10,2013,00,00*62
$GPGGA,050010.19,3529.179799,N,13846.765319,E,1,08,0.9,799.89,M,28.4,M,,,*77
$GPZDA,050010.19,19,10,2013,00,00*63
$GPGGA,050010.20,3529.179799,N,13846.765319,E,1,08,0.9,799.89,M,28.4,M,,,*7D
$GPZDA,050010.20,19,10,2013,00,00*69
$GPGGA,050010.21,3529.179799,N,13846.765319,E,1,08,0.9,799.88,M,28.4,M,,,*7D
$GPZDA,050010.21,19,10,2013,00,00*68
$GPGGA,050010.22,3529.179799,N,13846.765318,E,1,08,0.9,799.87,M,28.4,M,,,*70
$GPZDA,050010.22,19,10,2013,00,00*6B
$GPGGA,050010.23,3529.179799,N,13846.765318,E,1,08,0.9,799.86,M,28.4,M,,,*70
$GPZDA,050010.23,19,10,2013,00,00*6A
$GPGGA,050010.24,3529.179799,N,13846.765318,E,1,08,0.9,799.86,M,28.4,M,,,*77
$GPZDA,050010.24,19,10,2013,00,00*6D
$GPGGA,050010.25,3529.179799,N,13846.765318,E,1,08,0.9,799.85,M,28.4,M,,,*75
$GPZDA,050010.25,19,10,2013,00,00*6C
$GPGGA,050010.26,3529.179799,N,13846.765318,E,1,08,0.9,799.84,M,28.4,M,,,*77
$GPZDA,050010.26,19,10,2013,00,00*6F
$GPGGA,050010.27,3529.179798,N,13846.765317,E,1,08,0.9,799.84,M,28.4,M,,,*78
$GPZDA,050010.27,19,10,2013,00,00*6E
$GPGGA,050010.28,3529.179798,N,13846.765317,E,1,08,0.9,799.83,M,28.4,M,,,*70
$GPZDA,050010.28,19,10,2013,00,00*61
$GPGGA,050010.29,3529.179798,N,13846.765317,E,1,08,0.9,799.82,M,28.4,M,,,*70
$GPZDA,050010.29,19,10,2013,00,00*60
$GPGGA,050010.30,3529.179798,N,13846.765316,E,1,08,0.9,799.81,M,28.4,M,,,*7A
$GPZDA,050010.30,19,10,2013,00,00*68
$GPGGA,050010.31,3529.179798,N,13846.765316,E,1,08,0.9,799.81,M,28.4,M,,,*7B
$GPZDA,050010.31,19,10,2013,00,00*69
$GPGGA,050010.32,3529.179798,N,13846.765316,E,1,08,0.9,799.80,M,28.4,M,,,*79
$GPZDA,050010.32,19,10,2013,00,00*6A
$GPGGA,050010.33,3529.179797,N,13846.765315,E,1,08,0.9,799.79,M,28.4,M,,,*72
$GPZDA,050010.33,19,10,2013,00,00*6B
$GPGGA,050010.34,3529.179797,N,13846.765315,E,1,08,0.9,799.79,M,28.4,M,,,*75
$GPZDA,050010.34,19,10,2013,00,00*6C
$GPGGA,050010.35,3529.179797,N,13846.765315,E,1,08,0.9,799.78,M,28.4,M,,,*75
$GPZDA,050010.35,19,10,2013,00,00*6D
$GPGGA,050010.36,3529.179797,N,13846.765314,E,1,08,0.9,799.77,M,28.4,M,,,*78
$GPZDA,050010.36,19,10,2013,00,00*6E
$GPGGA,050010.37,3529.179796,N,13846.765314,E,1,08,0.9,799.77,M,28.4,M,,,*78
$GPZDA,050010.37,19,10,2013,00,00*6F
$GPGGA,050010.38,3529.179796,N,13846.765313,E,1,08,0.9,799.76,M,28.4,M,,,*71
$GPZDA,050010.38,19,10,2013,00,00*60
$GPGGA,050010.39,3529.179796,N,13846.765313,E,1,08,0.9,799.76,M,28.4,M,,,*70
$GPZDA,050010.39,19,10,2013,00,00*61
$GPGGA,050010.40,3529.179796,N,13846.765313,E,1,08,0.9,799.75,M,28.4,M,,,*7D
$GPZDA,050010.40,19,10,2013,00,00*6F
$GPGGA,050010.41,3529.179796,N,13846.765312,E,1,08,0.9,799.74,M,28.4,M,,,*7C
$GPZDA,050010.41,19,10,2013,00,00*6E
$GPGGA,050010.42,3529.179795,N,13846.765312,E,1,08,0.9,799.74,M,28.4,M,,,*7C
$GPZDA,050010.42,19,10,2013,00,00*6D
$GPGGA,050010.43,3529.179795,N,13846.765311,E,1,08,0.9,799.73,M,28.4,M,,,*79
$GPZDA,050010.43,19,10,2013,00,00*6C
$GPGGA,050010.44,3529.179795,N,13846.765311,E,1,08,0.9,799.73,M,28.4,M,,,*7E
$GPZDA,050010.44,19,10,2013,00,00*6B
$GPGGA,050010.45,3529.179794,N,13846.765310,E,1,08,0.9,799.72,M,28.4,M,,,*7E
$GPZDA,050010.45,19,10,2013,00,00*6A
$GPGGA,050010.46,3529.179794,N,13846.765310,E,1,08,0.9,799.71,M,28.4,M,,,*7E
$GPZDA,050010.46,19,10,2013,00,00*69
$GPGGA,050010.47,3529.179794,N,13846.765309,E,1,08,0.9,799.71,M,28.4,M,,,*77
$GPZDA,050010.47,19,10,2013,00,00*68
$GPGGA,050010.48,3529.179794,N,13846.765308,E,1,08,0.9,799.70,M,28.4,M,,,*78
$GPZDA,050010.48,19,10,2013,00,00*67
$GPGGA,050010.49,3529.179793,N,13846.765308,E,1,08,0.9,799.70,M,28.4,M,,,*7E
$GPZDA,050010.49,19,10,2013,00,00*66
$GPGGA,050010.50,3529.179793,N,13846.765307,E,1,08,0.9,799.69,M,28.4,M,,,*71
$GPZDA,050010.50,19,10,2013,00,00*6E
$GPGGA,050010.51,3529.179793,N,13846.765307,E,1,08,0.9,799.69,M,28.4,M,,,*70
$GPZDA,050010.51,19,10,2013,00,00*6F
$GPGGA,050010.52,3529.179792,N,13846.765306,E,1,08,0.9,799.68,M,28.4,M,,,*72
$GPZDA,050010.52,19,10,2013,00,00*6C
$GPGGA,050010.53,3529.179792,N,13846.765305,E,1,08,0.9,799.68,M,28.4,M,,,*70
$GPZDA,050010.53,19,10,2013,00,00*6D
$GPGGA,050010.54,3529.179792,N,13846.765305,E,1,08,0.9,799.67,M,28.4,M,,,*78
$GPZDA,050010.54,19,10,2013,00,00*6A
$GPGGA,050010.55,3529.179791,N,13846.765304,E,1,08,0.9,799.67,M,28.4,M,,,*7B
$GPZDA,050010.55,19,10,2013,00,00*6B
$GPGGA,050010.56,3529.179791,N,13846.765303,E,1,08,0.9,799.66,M,28.4,M,,,*7E
$GPZDA,050010.56,19,10,2013,00,00*68
$GPGGA,050010.57,3529.179790,N,13846.765303,E,1,08,0.9,799.66,M,28.4,M,,,*7E
$GPZDA,050010.57,19,10,2013,00,00*69
$GPGGA,050010.58,3529.179790,N,13846.765302,E,1,08,0.9,799.65,M,28.4,M,,,*73
$GPZDA,050010.58,19,10,2013,00,00*66
$GPGGA,050010.59,3529.179790,N,13846.765301,E,1,08,0.9,799.65,M,28.4,M,,,*71
$GPZDA,050010.59,19,10,2013,00,00*67
$GPGGA,050010.60,3529.179789,N,13846.765300,E,1,08,0.9,799.64,M,28.4,M,,,*73
$GPZDA,050010.60,19,10,2013,00,00*6D
$GPGGA,050010.61,3529.179789,N,13846.765300,E,1,08,0.9,799.64,M,28.4,M,,,*72
$GPZDA,050010.61,19,10,2013,00,00*6C
$GPGGA,050010.62,3529.179789,N,13846.765299,E,1,08,0.9,799.63,M,28.4,M,,,*77
$GPZDA,050010.62,19,10,2013,00,00*6F
$GPGGA,050010.63,3529.179788,N,13846.765298,E,1,08,0.9,799.63,M,28.4,M,,,*76
$GPZDA,050010.63,19,10,2013,00,00*6E
$GPGGA,050010.64,3529.179788,N,13846.765297,E,1,08,0.9,799.62,M,28.4,M,,,*7F
$GPZDA,050010.64,19,10,2013,00,00*69
$GPGGA,050010.65,3529.179787,N,13846.765297,E,1,08,0.9,799.62,M,28.4,M,,,*71
$GPZDA,050010.65,19,10,2013,00,00*68
$GPGGA,050010.66,3529.179787,N,13846.765296,E,1,08,0.9,799.62,M,28.4,M,,,*73
$GPZDA,050010.66,19,10,2013,00,00*6B
$GPGGA,050010.67,3529.179786,N,13846.765295,E,1,08,0.9,799.61,M,28.4,M,,,*73
$GPZDA,050010.67,19,10,2013,00,00*6A
$GPGGA,050010.68,3529.179786,N,13846.765294,E,1,08,0.9,799.61,M,28.4,M,,,*7D
$GPZDA,050010.68,19,10,2013,00,00*65
$GPGGA,050010.69,3529.179786,N,13846.765293,E,1,08,0.9,799.60,M,28.4,M,,,*7A
$GPZDA,050010.69,19,10,2013,00,00*64
$GPGGA,050010.70,3529.179785,N,13846.765292,E,1,08,0.9,799.60,M,28.4,M,,,*70
$GPZDA,050010.70,19,10,2013,00,00*6C
$GPGGA,050010.71,3529.179785,N,13846.765291,E,1,08,0.9,799.59,M,28.4,M,,,*78
$GPZDA,050010.71,19,10,2013,00,00*6D
$GPGGA,050010.72,3529.179784,N,13846.765290,E,1,08,0.9,799.59,M,28.4,M,,,*7B
$GPZDA,050010.72,19,10,2013,00,00*6E
$GPGGA,050010.73,3529.179784,N,13846.765289,E,1,08,0.9,799.59,M,28.4,M,,,*72
$GPZDA,050010.73,19,10,2013,00,00*6F
$GPGGA,050010.74,3529.179783,N,13846.765289,E,1,08,0.9,799.58,M,28.4,M,,,*73
$GPZDA,050010.74,19,10,2013,00,00*68
$GPGGA,050010.75,3529.179783,N,13846.765288,E,1,08,0.9,799.58,M,28.4,M,,,*73
$GPZDA,050010.75,19,10,2013,00,00*69
$GPGGA,050010.76,3529.179782,N,13846.765287,E,1,08,0.9,799.58,M,28.4,M,,,*7E
$GPZDA,050010.76,19,10,2013,00,00*6A
$GPGGA,050010.77,3529.179782,N,13846.765286,E,1,08,0.9,799.57,M,28.4,M,,,*71
$GPZDA,050010.77,19,10,2013,00,00*6B
$GPGGA,050010.78,3529.179781,N,13846.765285,E,1,08,0.9,799.57,M,28.4,M,,,*7E
$GPZDA,050010.78,19,10,2013,00,00*64
$GPGGA,050010.79,3529.179781,N,13846.765284,E,1,08,0.9,799.57,M,28.4,M,,,*7E
$GPZDA,050010.79,19,10,2013,00,00*65
$GPGGA,050010.80,3529.179780,N,13846.765282,E,1,08,0.9,799.56,M,28.4,M,,,*7E
$GPZDA,050010.80,19,10,2013,00,00*63
$GPGGA,050010.81,3529.179780,N,13846.765281,E,1,08,0.9,799.56,M,28.4,M,,,*7C
$GPZDA,050010.81,19,10,2013,00,00*62
$GPGGA,050010.82,3529.179779,N,13846.765280,E,1,08,0.9,799.56,M,28.4,M,,,*78
$GPZDA,050010.82,19,10,2013,00,00*61
$GPGGA,050010.83,3529.179778,N,13846.765279,E,1,08,0.9,799.55,M,28.4,M,,,*7D
$GPZDA,050010.83,19,10,2013,00,00*60
$GPGGA,050010.85,3529.179777,N,13846.765277,E,1,08,0.9,799.55,M,28.4,M,,,*7A
$GPZDA,050010.85,19,10,2013,00,00*66
$GPGGA,050010.86,3529.179777,N,13846.765276,E,1,08,0.9,799.54,M,28.4,M,,,*79
$GPZDA,050010.86,19,10,2013,00,00*65
$GPGGA,050010.87,3529.179776,N,13846.765275,E,1,08,0.9,799.54,M,28.4,M,,,*7A
$GPZDA,050010.87,19,10,2013,00,00*64
$GPGGA,050010.88,3529.179776,N,13846.765274,E,1,08,0.9,799.54,M,28.4,M,,,*74
$GPZDA,050010.88,19,10,2013,00,00*6B
$GPGGA,050010.89,3529.179775,N,13846.765272,E,1,08,0.9,799.54,M,28.4,M,,,*70
$GPZDA,050010.89,19,10,2013,00,00*6A
$GPGGA,050010.90,3529.179774,N,13846.765271,E,1,08,0.9,799.53,M,28.4,M,,,*7D
$GPZDA,050010.90,19,10,2013,00,00*62
$GPGGA,050010.91,3529.179774,N,13846.765270,E,1,08,0.9,799.53,M,28.4,M,,,*7D
$GPZDA,050010.91,19,10,2013,00,00*63
$GPGGA,050010.92,3529.179773,N,13846.765269,E,1,08,0.9,799.53,M,28.4,M,,,*71
$GPZDA,050010.92,19,10,2013,00,00*60
$GPGGA,050010.93,3529.179773,N,13846.765268,E,1,08,0.9,799.53,M,28.4,M,,,*71
$GPZDA,050010.93,19,10,2013,00,00*61
$GPGGA,050010.94,3529.179772,N,13846.765266,E,1,08,0.9,799.52,M,28.4,M,,,*78
$GPZDA,050010.94,19,10,2013,00,00*66
$GPGGA,050010.95,3529.179771,N,13846.765265,E,1,08,0.9,799.52,M,28.4,M,,,*79
$GPZDA,050010.95,19,10,2013,00,00*67
$GPGGA,050010.96,3529.179771,N,13846.765264,E,1,08,0.9,799.52,M,28.4,M,,,*7B
$GPZDA,050010.96,19,10,2013,00,00*64
$GPGGA,050010.97,3529.179770,N,13846.765263,E,1,08,0.9,799.52,M,28.4,M,,,*7C
$GPZDA,050010.97,19,10,2013,00,00*65
$GPGGA,050010.98,3529.179769,N,13846.765261,E,1,08,0.9,799.51,M,28.4,M,,,*7A
$GPZDA,050010.98,19,10,2013,00,00*6A
$GPGGA,050010.99,3529.179769,N,13846.765260,E,1,08,0.9,799.51,M,28.4,M,,,*7A
$GPZDA,050010.99,19,10,2013,00,00*6B
$GPGGA,050011.00,3529.179768,N,13846.765259,E,1,08,0.9,799.51,M,28.4,M,,,*70
$GPZDA,050011.00,19,10,2013,00,00*6A
$GPGGA,050011.01,3529.179767,N,13846.765257,E,1,08,0.9,799.51,M,28.4,M,,,*70
$GPZDA,050011.01,19,10,2013,00,00*6B
$GPGGA,050011.02,3529.179767,N,13846.765256,E,1,08,0.9,799.51,M,28.4,M,,,*72
$GPZDA,050011.02,19,10,2013,00,00*68
$GPGGA,050011.03,3529.179766,N,13846.765255,E,1,08,0.9,799.51,M,28.4,M,,,*71
$GPZDA,050011.03,19,10,2013,00,00*69
$GPGGA,050011.04,3529.179765,N,13846.765253,E,1,08,0.9,799.50,M,28.4,M,,,*72
$GPZDA,050011.04,19,10,2013,00,00*6E
$GPGGA,050011.05,3529.179764,N,13846.765252,E,1,08,0.9,799.50,M,28.4,M,,,*73
$GPZDA,050011.05,19,10,2013,00,00*6F
$GPGGA,050011.06,3529.179764,N,13846.765250,E,1,08,0.9,799.50,M,28.4,M,,,*72
$GPZDA,050011.06,19,10,2013,00,00*6C
$GPGGA,050011.07,3529.179763,N,13846.765249,E,1,08,0.9,799.50,M,28.4,M,,,*7C
$GPZDA,050011.07,19,10,2013,00,00*6D
$GPGGA,050011.08,3529.179762,N,13846.765248,E,1,08,0.9,799.50,M,28.4,M,,,*73
$GPZDA,050011.08,19,10,2013,00,00*62
$GPGGA,050011.09,3529.179762,N,13846.765246,E,1,08,0.9,799.50,M,28.4,M,,,*7C
$GPZDA,050011.09,19,10,2013,00,00*63
$GPGGA,050011.10,3529.179761,N,13846.765245,E,1,08,0.9,799.50,M,28.4,M,,,*74
$GPZDA,050011.10,19,10,2013,00,00*6B
$GPGGA,050011.11,3529.179760,N,13846.765243,E,1,08,0.9,799.49,M,28.4,M,,,*7A
$GPZDA,050011.11,19,10,2013,00,00*6A
$GPGGA,050011.12,3529.179759,N,13846.765242,E,1,08,0.9,799.49,M,28.4,M,,,*72
$GPZDA,050011.12,19,10,2013,00,00*69
$GPGGA,050011.13,3529.179758,N,13846.765240,E,1,08,0.9,799.49,M,28.4,M,,,*70
$GPZDA,050011.13,19,10,2013,00,00*68
$GPGGA,050011.14,3529.179758,N,13846.765239,E,1,08,0.9,799.49,M,28.4,M,,,*79
$GPZDA,050011.14,19,10,2013,00,00*6F
$GPGGA,050011.15,3529.179757,N,13846.765237,E,1,08,0.9,799.49,M,28.4,M,,,*79
$GPZDA,050011.15,19,10,2013,00,00*6E
$GPGGA,050011.16,3529.179756,N,13846.765236,E,1,08,0.9,799.49,M,28.4,M,,,*7A
$GPZDA,050011.16,19,10,2013,00,00*6D
$GPGGA,050011.17,3529.179755,N,13846.765234,E,1,08,0.9,799.49,M,28.4,M,,,*7A
$GPZDA,050011.17,19,10,2013,00,00*6C
$GPGGA,050011.18,3529.179754,N,13846.765233,E,1,08,0.9,799.49,M,28.4,M,,,*73
$GPZDA,050011.18,19,10,2013,00,00*63
$GPGGA,050011.19,3529.179754,N,13846.765231,E,1,08,0.9,799.49,M,28.4,M,,,*70
$GPZDA,050011.19,19,10,2013,00,00*62
$GPGGA,050011.20,3529.179753,N,13846.765230,E,1,08,0.9,799.49,M,28.4,M,,,*7C
$GPZDA,050011.20,19,10,2013,00,00*68
$GPGGA,050011.21,3529.179752,N,13846.765228,E,1,08,0.9,799.49,M,28.4,M,,,*75
$GPZDA,050011.21,19,10,2013,00,00*69
$GPGGA,050011.22,3529.179751,N,13846.765226,E,1,08,0.9,799.49,M,28.4,M,,,*7B
$GPZDA,050011.22,19,10,2013,00,00*6A
$GPGGA,050011.23,3529.179750,N,13846.765225,E,1,08,0.9,799.49,M,28.4,M,,,*78
$GPZDA,050011.23,19,10,2013,00,00*6B
$GPGGA,050011.24,3529.179749,N,13846.765223,E,1,08,0.9,799.49,M,28.4,M,,,*71
$GPZDA,050011.24,19,10,2013,00,00*6C
$GPGGA,050011.25,3529.179748,N,13846.765222,E,1,08,0.9,799.49,M,28.4,M,,,*70
$GPZDA,050011.25,19,10,2013,00,00*6D
$GPGGA,050011.26,3529.179748,N,13846.765220,E,1,08,0.9,799.49,M,28.4,M,,,*71
$GPZDA,050011.26,19,10,2013,00,00*6E
$GPGGA,050011.27,3529.179747,N,13846.765218,E,1,08,0.9,799.49,M,28.4,M,,,*74
$GPZDA,050011.27,19,10,2013,00,00*6F
$GPGGA,050011.28,3529.179746,N,13846.765217,E,1,08,0.9,799.49,M,28.4,M,,,*75
$GPZDA,050011.28,19,10,2013,00,00*60
$GPGGA,050011.29,3529.179745,N,13846.765215,E,1,08,0.9,799.49,M,28.4,M,,,*75
$GPZDA,050011.29,19,10,2013,00,00*61
$GPGGA,050011.30,3529.179744,N,13846.765213,E,1,08,0.9,799.49,M,28.4,M,,,*7A
$GPZDA,050011.30,19,10,2013,00,00*69
$GPGGA,050011.31,3529.179743,N,13846.765212,E,1,08,0.9,799.49,M,28.4,M,,,*7D
$GPZDA,050011.31,19,10,2013,00,00*68
$GPGGA,050011.32,3529.179742,N,13846.765210,E,1,08,0.9,799.49,M,28.4,M,,,*7D
$GPZDA,050011.32,19,10,2013,00,00*6B
$GPGGA,050011.33,3529.179741,N,13846.765208,E,1,08,0.9,799.49,M,28.4,M,,,*76
$GPZDA,050011.33,19,10,2013,00,00*6A
$GPGGA,050011.34,3529.179740,N,13846.765207,E,1,08,0.9,799.49,M,28.4,M,,,*7F
$GPZDA,050011.34,19,10,2013,00,00*6D
$GPGGA,050011.35,3529.179739,N,13846.765205,E,1,08,0.9,799.49,M,28.4,M,,,*72
$GPZDA,050011.35,19,10,2013,00,00*6C
$GPGGA,050011.36,3529.179738,N,13846.765203,E,1,08,0.9,799.49,M,28.4,M,,,*76
$GPZDA,050011.36,19,10,2013,00,00*6F
$GPGGA,050011.37,3529.179737,N,13846.765201,E,1,08,0.9,799.49,M,28.4,M,,,*7A
$GPZDA,050011.37,19,10,2013,00,00*6E
$GPGGA,050011.38,3529.179736,N,13846.765200,E,1,08,0.9,799.49,M,28.4,M,,,*75
$GPZDA,050011.38,19,10,2013,00,00*61
$GPGGA,050011.39,3529.179735,N,13846.765198,E,1,08,0.9,799.49,M,28.4,M,,,*75
$GPZDA,050011.39,19,10,2013,00,00*60
$GPGGA,050011.40,3529.179734,N,13846.765196,E,1,08,0.9,799.49,M,28.4,M,,,*74
$GPZDA,050011.40,19,10,2013,00,00*6E
$GPGGA,050011.41,3529.179733,N,13846.765194,E,1,08,0.9,799.50,M,28.4,M,,,*78
$GPZDA,050011.41,19,10,2013,00,00*6F
$GPGGA,050011.42,3529.179732,N,13846.765192,E,1,08,0.9,799.50,M,28.4,M,,,*7C
$GPZDA,050011.42,19,10,2013,00,00*6C
$GPGGA,050011.43,3529.179731,N,13846.765191,E,1,08,0.9,799.50,M,28.4,M,,,*7D
$GPZDA,050011.43,19,10,2013,00,00*6D
$GPGGA,050011.44,3529.179730,N,13846.765189,E,1,08,0.9,799.50,M,28.4,M,,,*72
$GPZDA,050011.44,19,10,2013,00,00*6A
$GPGGA,050011.45,3529.179729,N,13846.765187,E,1,08,0.9,799.50,M,28.4,M,,,*75
$GPZDA,050011.45,19,10,2013,00,00*6B
$GPGGA,050011.46,3529.179728,N,13846.765185,E,1,08,0.9,799.50,M,28.4,M,,,*75
$GPZDA,050011.46,19,10,2013,00,00*68
$GPGGA,050011.47,3529.179727,N,13846.765183,E,1,08,0.9,799.50,M,28.4,M,,,*7D
$GPZDA,050011.47,19,10,2013,00,00*69
$GPGGA,050011.48,3529.179726,N,13846.765181,E,1,08,0.9,799.50,M,28.4,M,,,*71
$GPZDA,050011.48,19,10,2013,00,00*66
$GPGGA,050011.49,3529.179725,N,13846.765179,E,1,08,0.9,799.51,M,28.4,M,,,*75
$GPZDA,050011.49,19,10,2013,00,00*67
$GPGGA,050011.50,3529.179724,N,13846.765177,E,1,08,0.9,799.51,M,28.4,M,,,*72
$GPZDA,050011.50,19,10,2013,00,00*6F
$GPGGA,050011.51,3529.179723,N,13846.765175,E,1,08,0.9,799.51,M,28.4,M,,,*76
$GPZDA,050011.51,19,10,2013,00,00*6E
$GPGGA,050011.52,3529.179722,N,13846.765173,E,1,08,0.9,799.51,M,28.4,M,,,*72
$GPZDA,050011.52,19,10,2013,00,00*6D
$GPGGA,050011.53,3529.179721,N,13846.765171,E,1,08,0.9,799.51,M,28.4,M,,,*72
$GPZDA,050011.53,19,10,2013,00,00*6C
$GPGGA,050011.54,3529.179719,N,13846.765169,E,1,08,0.9,799.52,M,28.4,M,,,*74
$GPZDA,050011.54,19,10,2013,00,00*6B
$GPGGA,050011.55,3529.179718,N,13846.765167,E,1,08,0.9,799.52,M,28.4,M,,,*7A
$GPZDA,050011.55,19,10,2013,00,00*6A
$GPGGA,050011.56,3529.179717,N,13846.765165,E,1,08,0.9,799.52,M,28.4,M,,,*74
$GPZDA,050011.56,19,10,2013,00,00*69
$GPGGA,050011.57,3529.179716,N,13846.765163,E,1,08,0.9,799.52,M,28.4,M,,,*72
$GPZDA,050011.57,19,10,2013,00,00*68
$GPGGA,050011.58,3529.179715,N,13846.765161,E,1,08,0.9,799.52,M,28.4,M,,,*7C
$GPZDA,050011.58,19,10,2013,00,00*67
$GPGGA,050011.59,3529.179714,N,13846.765159,E,1,08,0.9,799.53,M,28.4,M,,,*76
$GPZDA,050011.59,19,10,2013,00,00*66
$GPGGA,050011.60,3529.179712,N,13846.765157,E,1,08,0.9,799.53,M,28.4,M,,,*74
$GPZDA,050011.60,19,10,2013,00,00*6C
$GPGGA,050011.61,3529.179711,N,13846.765155,E,1,08,0.9,799.53,M,28.4,M,,,*74
$GPZDA,050011.61,19,10,2013,00,00*6D
$GPGGA,050011.62,3529.179710,N,13846.765153,E,1,08,0.9,799.53,M,28.4,M,,,*70
$GPZDA,050011.62,19,10,2013,00,00*6E
$GPGGA,050011.63,3529.179709,N,13846.765151,E,1,08,0.9,799.54,M,28.4,M,,,*7C
$GPZDA,050011.63,19,10,2013,00,00*6F
$GPGGA,050011.64,3529.179708,N,13846.765148,E,1,08,0.9,799.54,M,28.4,M,,,*72
$GPZDA,050011.64,19,10,2013,00,00*68
$GPGGA,050011.65,3529.179706,N,13846.765146,E,1,08,0.9,799.54,M,28.4,M,,,*73
$GPZDA,050011.65,19,10,2013,00,00*69
$GPGGA,050011.66,3529.179705,N,13846.765144,E,1,08,0.9,799.54,M,28.4,M,,,*71
$GPZDA,050011.66,19,10,2013,00,00*6A
$GPGGA,050011.67,3529.179704,N,13846.765142,E,1,08,0.9,799.55,M,28.4,M,,,*76
$GPZDA,050011.67,19,10,2013,00,00*6B
$GPGGA,050011.68,3529.179703,N,13846.765140,E,1,08,0.9,799.55,M,28.4,M,,,*7C
$GPZDA,050011.68,19,10,2013,00,00*64
$GPGGA,050011.69,3529.179701,N,13846.765137,E,1,08,0.9,799.55,M,28.4,M,,,*7F
$GPZDA,050011.69,19,10,2013,00,00*65
$GPGGA,050011.70,3529.179700,N,13846.765135,E,1,08,0.9,799.56,M,28.4,M,,,*77
$GPZDA,050011.70,19,10,2013,00,00*6D
$GPGGA,050011.71,3529.179699,N,13846.765133,E,1,08,0.9,799.56,M,28.4,M,,,*71
$GPZDA,050011.71,19,10,2013,00,00*6C
$GPGGA,050011.72,3529.179697,N,13846.765130,E,1,08,0.9,799.56,M,28.4,M,,,*7F
$GPZDA,050011.72,19,10,2013,00,00*6F
$GPGGA,050011.73,3529.179696,N,13846.765128,E,1,08,0.9,799.57,M,28.4,M,,,*77
$GPZDA,050011.73,19,10,2013,00,00*6E
$GPGGA,050011.74,3529.179695,N,13846.765126,E,1,08,0.9,799.57,M,28.4,M,,,*7D
$GPZDA,050011.74,19,10,2013,00,00*69
$GPGGA,050011.75,3529.179693,N,13846.765123,E,1,08,0.9,799.57,M,28.4,M,,,*7F
$GPZDA,050011.75,19,10,2013,00,00*68
$GPGGA,050011.76,3529.179692,N,13846.765121,E,1,08,0.9,799.58,M,28.4,M,,,*70
$GPZDA,050011.76,19,10,2013,00,00*6B
$GPGGA,050011.77,3529.179691,N,13846.765118,E,1,08,0.9,799.58,M,28.4,M,,,*78
$GPZDA,050011.77,19,10,2013,00,00*6A
$GPGGA,050011.78,3529.179689,N,13846.765116,E,1,08,0.9,799.58,M,28.4,M,,,*70
$GPZDA,050011.78,19,10,2013,00,00*65
$GPGGA,050011.79,3529.179688,N,13846.765114,E,1,08,0.9,799.59,M,28.4,M,,,*73
$GPZDA,050011.79,19,10,2013,00,00*64
$GPGGA,050011.80,3529.179687,N,13846.765111,E,1,08,0.9,799.59,M,28.4,M,,,*7F
$GPZDA,050011.80,19,10,2013,00,00*62
$GPGGA,050011.81,3529.179685,N,13846.765109,E,1,08,0.9,799.60,M,28.4,M,,,*7F
$GPZDA,050011.81,19,10,2013,00,00*63
$GPGGA,050011.82,3529.179684,N,13846.765106,E,1,08,0.9,799.60,M,28.4,M,,,*72
$GPZDA,050011.82,19,10,2013,00,00*60
$GPGGA,050011.83,3529.179682,N,13846.765104,E,1,08,0.9,799.60,M,28.4,M,,,*77
$GPZDA,050011.83,19,10,2013,00,00*61
$GPGGA,050011.84,3529.179681,N,13846.765101,E,1,08,0.9,799.61,M,28.4,M,,,*77
$GPZDA,050011.84,19,10,2013,00,00*66
$GPGGA,050011.85,3529.179680,N,13846.765098,E,1,08,0.9,799.61,M,28.4,M,,,*76
$GPZDA,050011.85,19,10,2013,00,00*67
$GPGGA,050011.86,3529.179678,N,13846.765096,E,1,08,0.9,799.62,M,28.4,M,,,*7F
$GPZDA,050011.86,19,10,2013,00,00*64
$GPGGA,050011.87,3529.179677,N,13846.765093,E,1,08,0.9,799.62,M,28.4,M,,,*74
$GPZDA,050011.87,19,10,2013,00,00*65
$GPGGA,050011.88,3529.179675,N,13846.765091,E,1,08,0.9,799.63,M,28.4,M,,,*7A
$GPZDA,050011.88,19,10,2013,00,00*6A
$GPGGA,050011.89,3529.179674,N,13846.765088,E,1,08,0.9,799.63,M,28.4,M,,,*72
$GPZDA,050011.89,19,10,2013,00,00*6B
$GPGGA,050011.90,3529.179672,N,13846.765085,E,1,08,0.9,799.63,M,28.4,M,,,*71
$GPZDA,050011.90,19,10,2013,00,00*63
$GPGGA,050011.91,3529.179671,N,13846.765083,E,1,08,0.9,799.64,M,28.4,M,,,*72
$GPZDA,050011.91,19,10,2013,00,00*62
$GPGGA,050011.92,3529.179669,N,13846.765080,E,1,08,0.9,799.64,M,28.4,M,,,*7B
$GPZDA,050011.92,19,10,2013,00,00*61
$GPGGA,050011.93,3529.179668,N,13846.765077,E,1,08,0.9,799.65,M,28.4,M,,,*72
$GPZDA,050011.93,19,10,2013,00,00*60
$GPGGA,050011.94,3529.179666,N,13846.765074,E,1,08,0.9,799.65,M,28.4,M,,,*78
$GPZDA,050011.94,19,10,2013,00,00*67
$GPGGA,050011.95,3529.179665,N,13846.765072,E,1,08,0.9,799.66,M,28.4,M,,,*7F
$GPZDA,050011.95,19,10,2013,00,00*66
$GPGGA,050011.96,3529.179663,N,13846.765069,E,1,08,0.9,799.66,M,28.4,M,,,*70
$GPZDA,050011.96,19,10,2013,00,00*65
$GPGGA,050011.97,3529.179661,N,13846.765066,E,1,08,0.9,799.67,M,28.4,M,,,*7D
$GPZDA,050011.97,19,10,2013,00,00*64
$GPGGA,050011.98,3529.179660,N,13846.765063,E,1,08,0.9,799.67,M,28.4,M,,,*76
$GPZDA,050011.98,19,10,2013,00,00*6B
$GPGGA,050011.99,3529.179658,N,13846.765060,E,1,08,0.9,799.68,M,28.4,M,,,*70
$GPZDA,050011.99,19,10,2013,00,00*6A
$GPGGA,050012.00,3529.179657,N,13846.765058,E,1,08,0.9,799.68,M,28.4,M,,,*77
$GPZDA,050012.00,19,10,2013,00,00*69
$GPGGA,050012.01,3529.179655,N,13846.765055,E,1,08,0.9,799.69,M,28.4,M,,,*78
$GPZDA,050012.01,19,10,2013,00,00*68
$GPGGA,050012.02,3529.179654,N,13846.765052,E,1,08,0.9,799.69,M,28.4,M,,,*7D
$GPZDA,050012.02,19,10,2013,00,00*6B
$GPGGA,050012.03,3529.179652,N,13846.765049,E,1,08,0.9,799.70,M,28.4,M,,,*78
$GPZDA,050012.03,19,10,2013,00,00*6A
$GPGGA,050012.04,3529.179650,N,13846.765046,E,1,08,0.9,799.71,M,28.4,M,,,*73
$GPZDA,050012.04,19,10,2013,00,00*6D
$GPGGA,050012.05,3529.179649,N,13846.765043,E,1,08,0.9,799.71,M,28.4,M,,,*7F
$GPZDA,050012.05,19,10,2013,00,00*6C
$GPGGA,050012.06,3529.179647,N,13846.765040,E,1,08,0.9,799.72,M,28.4,M,,,*72
$GPZDA,050012.06,19,10,2013,00,00*6F
$GPGGA,050012.07,3529.179645,N,13846.765037,E,1,08,0.9,799.72,M,28.4,M,,,*71
$GPZDA,050012.07,19,10,2013,00,00*6E
$GPGGA,050012.08,3529.179644,N,13846.765034,E,1,08,0.9,799.73,M,28.4,M,,,*7D
$GPZDA,050012.08,19,10,2013,00,00*61
$GPGGA,050012.09,3529.179642,N,13846.765031,E,1,08,0.9,799.73,M,28.4,M,,,*7F
$GPZDA,050012.09,19,10,2013,00,00*60
$GPGGA,050012.10,3529.179640,N,13846.765028,E,1,08,0.9,799.74,M,28.4,M,,,*7A
$GPZDA,050012.10,19,10,2013,00,00*68
$GPGGA,050012.11,3529.179639,N,13846.765025,E,1,08,0.9,799.75,M,28.4,M,,,*79
$GPZDA,050012.11,19,10,2013,00,00*69
$GPGGA,050012.12,3529.179637,N,13846.765022,E,1,08,0.9,799.75,M,28.4,M,,,*73
$GPZDA,050012.12,19,10,2013,00,00*6A
$GPGGA,050012.13,3529.179635,N,13846.765019,E,1,08,0.9,799.76,M,28.4,M,,,*7B
$GPZDA,050012.13,19,10,2013,00,00*6B
$GPGGA,050012.14,3529.179633,N,13846.765016,E,1,08,0.9,799.76,M,28.4,M,,,*75
$GPZDA,050012.14,19,10,2013,00,00*6C
$GPGGA,050012.15,3529.179632,N,13846.765013,E,1,08,0.9,799.77,M,28.4,M,,,*71
$GPZDA,050012.15,19,10,2013,00,00*6D
$GPGGA,050012.16,3529.179630,N,13846.765010,E,1,08,0.9,799.78,M,28.4,M,,,*7C
$GPZDA,050012.16,19,10,2013,00,00*6E
$GPGGA,050012.17,3529.179628,N,13846.765007,E,1,08,0.9,799.78,M,28.4,M,,,*72
$GPZDA,050012.17,19,10,2013,00,00*6F
$GPGGA,050012.18,3529.179626,N,13846.765004,E,1,08,0.9,799.79,M,28.4,M,,,*71
$GPZDA,050012.18,19,10,2013,00,00*60
$GPGGA,050012.19,3529.179625,N,13846.765001,E,1,08,0.9,799.80,M,28.4,M,,,*70
$GPZDA,050012.19,19,10,2013,00,00*61
$GPGGA,050012.20,3529.179623,N,13846.764998,E,1,08,0.9,799.80,M,28.4,M,,,*74
$GPZDA,050012.20,19,10,2013,00,00*6B
$GPGGA,050012.21,3529.179621,N,13846.764994,E,1,08,0.9,799.81,M,28.4,M,,,*7A
$GPZDA,050012.21,19,10,2013,00,00*6A
$GPGGA,050012.22,3529.179619,N,13846.764991,E,1,08,0.9,799.82,M,28.4,M,,,*74
$GPZDA,050012.22,19,10,2013,00,00*69
$GPGGA,050012.23,3529.179618,N,13846.764988,E,1,08,0.9,799.82,M,28.4,M,,,*7C
$GPZDA,050012.23,19,10,2013,00,00*68
$GPGGA,050012.24,3529.179616,N,13846.764985,E,1,08,0.9,799.83,M,28.4,M,,,*79
$GPZDA,050012.24,19,10,2013,00,00*6F
$GPGGA,050012.25,3529.179614,N,13846.764982,E,1,08,0.9,799.84,M,28.4,M,,,*7A
$GPZDA,050012.25,19,10,2013,00,00*6E
$GPGGA,050012.26,3529.179612,N,13846.764978,E,1,08,0.9,799.84,M,28.4,M,,,*7A
$GPZDA,050012.26,19,10,2013,00,00*6D
$GPGGA,050012.27,3529.179610,N,13846.764975,E,1,08,0.9,799.85,M,28.4,M,,,*75
$GPZDA,050012.27,19,10,2013,00,00*6C
$GPGGA,050012.28,3529.179608,N,13846.764972,E,1,08,0.9,799.86,M,28.4,M,,,*77
$GPZDA,050012.28,19,10,2013,00,00*63
$GPGGA,050012.29,3529.179607,N,13846.764969,E,1,08,0.9,799.87,M,28.4,M,,,*72
$GPZDA,050012.29,19,10,2013,00,00*62
$GPGGA,050012.30,3529.179605,N,13846.764965,E,1,08,0.9,799.87,M,28.4,M,,,*74
$GPZDA,050012.30,19,10,2013,00,00*6A
$GPGGA,050012.31,3529.179603,N,13846.764962,E,1,08,0.9,799.88,M,28.4,M,,,*7B
$GPZDA,050012.31,19,10,2013,00,00*6B
$GPGGA,050012.32,3529.179601,N,13846.764959,E,1,08,0.9,799.89,M,28.4,M,,,*73
$GPZDA,050012.32,19,10,2013,00,00*68
$GPGGA,050012.33,3529.179599,N,13846.764956,E,1,08,0.9,799.90,M,28.4,M,,,*77
$GPZDA,050012.33,19,10,2013,00,00*69
$GPGGA,050012.34,3529.179597,N,13846.764952,E,1,08,0.9,799.90,M,28.4,M,,,*7A
$GPZDA,050012.34,19,10,2013,00,00*6E
$GPGGA,050012.35,3529.179595,N,13846.764949,E,1,08,0.9,799.91,M,28.4,M,,,*72
$GPZDA,050012.35,19,10,2013,00,00*6F
$GPGGA,050012.36,3529.179593,N,13846.764946,E,1,08,0.9,799.92,M,28.4,M,,,*7B
$GPZDA,050012.36,19,10,2013,00,00*6C
$GPGGA,050012.37,3529.179591,N,13846.764942,E,1,08,0.9,799.93,M,28.4,M,,,*7D
$GPZDA,050012.37,19,10,2013,00,00*6D
$GPGGA,050012.38,3529.179590,N,13846.764939,E,1,08,0.9,799.94,M,28.4,M,,,*78
$GPZDA,050012.38,19,10,2013,00,00*62
$GPGGA,050012.39,3529.179588,N,13846.764935,E,1,08,0.9,799.94,M,28.4,M,,,*7C
$GPZDA,050012.39,19,10,2013,00,00*63
$GPGGA,050012.40,3529.179586,N,13846.764932,E,1,08,0.9,799.95,M,28.4,M,,,*7A
$GPZDA,050012.40,19,10,2013,00,00*6D
$GPGGA,050012.41,3529.179584,N,13846.764929,E,1,08,0.9,799.96,M,28.4,M,,,*70
$GPZDA,050012.41,19,10,2013,00,00*6C
$GPGGA,050012.42,3529.179582,N,13846.764925,E,1,08,0.9,799.97,M,28.4,M,,,*78
$GPZDA,050012.42,19,10,2013,00,00*6F
$GPGGA,050012.43,3529.179580,N,13846.764922,E,1,08,0.9,799.98,M,28.4,M,,,*73
$GPZDA,050012.43,19,10,2013,00,00*6E
$GPGGA,050012.44,3529.179578,N,13846.764918,E,1,08,0.9,799.98,M,28.4,M,,,*7A
$GPZDA,050012.44,19,10,2013,00,00*69
$GPGGA,050012.45,3529.179576,N,13846.764915,E,1,08,0.9,799.99,M,28.4,M,,,*79
$GPZDA,050012.45,19,10,2013,00,00*68
$GPGGA,050012.46,3529.179574,N,13846.764911,E,1,08,0.9,800.00,M,28.4,M,,,*73
$GPZDA,050012.46,19,10,2013,00,00*6B
$GPGGA,050012.47,3529.179572,N,13846.764908,E,1,08,0.9,800.01,M,28.4,M,,,*7D
$GPZDA,050012.47,19,10,2013,00,00*6A
$GPGGA,050012.48,3529.179570,N,13846.764904,E,1,08,0.9,800.02,M,28.4,M,,,*7F
$GPZDA,050012.48,19,10,2013,00,00*65
$GPGGA,050012.49,3529.179568,N,13846.764901,E,1,08,0.9,800.03,M,28.4,M,,,*73
$GPZDA,050012.49,19,10,2013,00,00*64
$GPGGA,050012.50,3529.179566,N,13846.764897,E,1,08,0.9,800.04,M,28.4,M,,,*7C
$GPZDA,050012.50,19,10,2013,00,00*6C
$GPGGA,050012.51,3529.179564,N,13846.764894,E,1,08,0.9,800.04,M,28.4,M,,,*7C
$GPZDA,050012.51,19,10,2013,00,00*6D
$GPGGA,050012.52,3529.179562,N,13846.764890,E,1,08,0.9,800.05,M,28.4,M,,,*7C
$GPZDA,050012.52,19,10,2013,00,00*6E
$GPGGA,050012.53,3529.179560,N,13846.764887,E,1,08,0.9,800.06,M,28.4,M,,,*7A
$GPZDA,050012.53,19,10,2013,00,00*6F
$GPGGA,050012.54,3529.179558,N,13846.764883,E,1,08,0.9,800.07,M,28.4,M,,,*73
$GPZDA,050012.54,19,10,2013,00,00*68
$GPGGA,050012.55,3529.179556,N,13846.764880,E,1,08,0.9,800.08,M,28.4,M,,,*70
$GPZDA,050012.55,19,10,2013,00,00*69
$GPGGA,050012.56,3529.179553,N,13846.764876,E,1,08,0.9,800.09,M,28.4,M,,,*7E
$GPZDA,050012.56,19,10,2013,00,00*6A
$GPGGA,050012.57,3529.179551,N,13846.764872,E,1,08,0.9,800.10,M,28.4,M,,,*71
$GPZDA,050012.57,19,10,2013,00,00*6B
$GPGGA,050012.58,3529.179549,N,13846.764869,E,1,08,0.9,800.11,M,28.4,M,,,*7C
$GPZDA,050012.58,19,10,2013,00,00*64
$GPGGA,050012.59,3529.179547,N,13846.764865,E,1,08,0.9,800.12,M,28.4,M,,,*7C
$GPZDA,050012.59,19,10,2013,00,00*65
$GPGGA,050012.60,3529.179545,N,13846.764861,E,1,08,0.9,800.13,M,28.4,M,,,*71
$GPZDA,050012.60,19,10,2013,00,00*6F
$GPGGA,050012.61,3529.179543,N,13846.764858,E,1,08,0.9,800.14,M,28.4,M,,,*7B
$GPZDA,050012.61,19,10,2013,00,00*6E
$GPGGA,050012.62,3529.179541,N,13846.764854,E,1,08,0.9,800.15,M,28.4,M,,,*77
$GPZDA,050012.62,19,10,2013,00,00*6D
$GPGGA,050012.63,3529.179539,N,13846.764850,E,1,08,0.9,800.16,M,28.4,M,,,*7E
$GPZDA,050012.63,19,10,2013,00,00*6C
$GPGGA,050012.64,3529.179536,N,13846.764846,E,1,08,0.9,800.17,M,28.4,M,,,*70
$GPZDA,050012.64,19,10,2013,00,00*6B
$GPGGA,050012.65,3529.179534,N,13846.764843,E,1,08,0.9,800.18,M,28.4,M,,,*79
$GPZDA,050012.65,19,10,2013,00,00*6A
$GPGGA,050012.66,3529.179532,N,13846.764839,E,1,08,0.9,800.19,M,28.4,M,,,*70
$GPZDA,050012.66,19,10,2013,00,00*69
$GPGGA,050012.67,3529.179530,N,13846.764835,E,1,08,0.9,800.20,M,28.4,M,,,*75
$GPZDA,050012.67,19,10,2013,00,00*68
$GPGGA,050012.68,3529.179528,N,13846.764831,E,1,08,0.9,800.21,M,28.4,M,,,*76
$GPZDA,050012.68,19,10,2013,00,00*67
$GPGGA,050012.69,3529.179526,N,13846.764827,E,1,08,0.9,800.22,M,28.4,M,,,*7D
$GPZDA,050012.69,19,10,2013,00,00*66
$GPGGA,050012.70,3529.179523,N,13846.764824,E,1,08,0.9,800.23,M,28.4,M,,,*72
$GPZDA,050012.70,19,10,2013,00,00*6E
$GPGGA,050012.71,3529.179521,N,13846.764820,E,1,08,0.9,800.24,M,28.4,M,,,*72
$GPZDA,050012.71,19,10,2013,00,00*6F
$GPGGA,050012.72,3529.179519,N,13846.764816,E,1,08,0.9,800.25,M,28.4,M,,,*7E
$GPZDA,050012.72,19,10,2013,00,00*6C
$GPGGA,050012.73,3529.179517,N,13846.764812,E,1,08,0.9,800.26,M,28.4,M,,,*76
$GPZDA,050012.73,19,10,2013,00,00*6D
$GPGGA,050012.74,3529.179514,N,13846.764808,E,1,08,0.9,800.27,M,28.4,M,,,*78
$GPZDA,050012.74,19,10,2013,00,00*6A
$GPGGA,050012.75,3529.179512,N,13846.764804,E,1,08,0.9,800.28,M,28.4,M,,,*7C
$GPZDA,050012.75,19,10,2013,00,00*6B
$GPGGA,050012.76,3529.179510,N,13846.764800,E,1,08,0.9,800.29,M,28.4,M,,,*78
$GPZDA,050012.76,19,10,2013,00,00*68
$GPGGA,050012.77,3529.179508,N,13846.764796,E,1,08,0.9,800.30,M,28.4,M,,,*78
$GPZDA,050012.77,19,10,2013,00,00*69
$GPGGA,050012.78,3529.179505,N,13846.764792,E,1,08,0.9,800.31,M,28.4,M,,,*7F
$GPZDA,050012.78,19,10,2013,00,00*66
$GPGGA,050012.79,3529.179503,N,13846.764787,E,1,08,0.9,800.32,M,28.4,M,,,*7F
$GPZDA,050012.79,19,10,2013,00,00*67
$GPGGA,050012.80,3529.179501,N,13846.764783,E,1,08,0.9,800.33,M,28.4,M,,,*7E
$GPZDA,050012.80,19,10,2013,00,00*61
$GPGGA,050012.81,3529.179498,N,13846.764779,E,1,08,0.9,800.34,M,28.4,M,,,*7C
$GPZDA,050012.81,19,10,2013,00,00*60
$GPGGA,050012.82,3529.179496,N,13846.764775,E,1,08,0.9,800.35,M,28.4,M,,,*7C
$GPZDA,050012.82,19,10,2013,00,00*63
$GPGGA,050012.83,3529.179494,N,13846.764771,E,1,08,0.9,800.37,M,28.4,M,,,*79
$GPZDA,050012.83,19,10,2013,00,00*62
$GPGGA,050012.84,3529.179491,N,13846.764766,E,1,08,0.9,800.38,M,28.4,M,,,*72
$GPZDA,050012.84,19,10,2013,00,00*65
$GPGGA,050012.85,3529.179489,N,13846.764762,E,1,08,0.9,800.39,M,28.4,M,,,*7F
$GPZDA,050012.85,19,10,2013,00,00*64
$GPGGA,050012.86,3529.179487,N,13846.764758,E,1,08,0.9,800.40,M,28.4,M,,,*75
$GPZDA,050012.86,19,10,2013,00,00*67
$GPGGA,050012.87,3529.179484,N,13846.764753,E,1,08,0.9,800.41,M,28.4,M,,,*7D
$GPZDA,050012.87,19,10,2013,00,00*66
$GPGGA,050012.88,3529.179482,N,13846.764749,E,1,08,0.9,800.42,M,28.4,M,,,*7C
$GPZDA,050012.88,19,10,2013,00,00*69
$GPGGA,050012.89,3529.179479,N,13846.764744,E,1,08,0.9,800.43,M,28.4,M,,,*75
$GPZDA,050012.89,19,10,2013,00,00*68
$GPGGA,050012.90,3529.179477,N,13846.764740,E,1,08,0.9,800.44,M,28.4,M,,,*70
$GPZDA,050012.90,19,10,2013,00,00*60
$GPGGA,050012.91,3529.179475,N,13846.764735,E,1,08,0.9,800.46,M,28.4,M,,,*73
$GPZDA,050012.91,19,10,2013,00,00*61
$GPGGA,050012.92,3529.179472,N,13846.764731,E,1,08,0.9,800.47,M,28.4,M,,,*72
$GPZDA,050012.92,19,10,2013,00,00*62
$GPGGA,050012.93,3529.179470,N,13846.764726,E,1,08,0.9,800.48,M,28.4,M,,,*78
$GPZDA,050012.93,19,10,2013,00,00*63
$GPGGA,050012.94,3529.179467,N,13846.764722,E,1,08,0.9,800.49,M,28.4,M,,,*7C
$GPZDA,050012.94,19,10,2013,00,00*64
$GPGGA,050012.95,3529.179465,N,13846.764717,E,1,08,0.9,800.50,M,28.4,M,,,*71
$GPZDA,050012.95,19,10,2013,00,00*65
$GPGGA,050012.96,3529.179462,N,13846.764712,E,1,08,0.9,800.52,M,28.4,M,,,*72
$GPZDA,050012.96,19,10,2013,00,00*66
$GPGGA,050012.97,3529.179460,N,13846.764707,E,1,08,0.9,800.53,M,28.4,M,,,*74
$GPZDA,050012.97,19,10,2013,00,00*67
$GPGGA,050012.98,3529.179457,N,13846.764703,E,1,08,0.9,800.54,M,28.4,M,,,*7C
$GPZDA,050012.98,19,10,2013,00,00*68
$GPGGA,050012.99,3529.179455,N,13846.764698,E,1,08,0.9,800.55,M,28.4,M,,,*7D
$GPZDA,050012.99,19,10,2013,00,00*69
$GPGGA,050013.00,3529.179452,N,13846.764693,E,1,08,0.9,800.56,M,28.4,M,,,*73
$GPZDA,050013.00,19,10,2013,00,00*68
$GPGGA,050013.01,3529.179449,N,13846.764688,E,1,08,0.9,800.58,M,28.4,M,,,*7C
$GPZDA,050013.01,19,10,2013,00,00*69
$GPGGA,050013.02,3529.179447,N,13846.764683,E,1,08,0.9,800.59,M,28.4,M,,,*7B
$GPZDA,050013.02,19,10,2013,00,00*6A
$GPGGA,050013.03,3529.179444,N,13846.764678,E,1,08,0.9,800.60,M,28.4,M,,,*77
$GPZDA,050013.03,19,10,2013,00,00*6B
$GPGGA,050013.04,3529.179442,N,13846.764673,E,1,08,0.9,800.61,M,28.4,M,,,*7C
$GPZDA,050013.04,19,10,2013,00,00*6C
$GPGGA,050013.05,3529.179439,N,13846.764668,E,1,08,0.9,800.63,M,28.4,M,,,*79
$GPZDA,050013.05,19,10,2013,00,00*6D
$GPGGA,050013.06,3529.179436,N,13846.764663,E,1,08,0.9,800.64,M,28.4,M,,,*79
$GPZDA,050013.06,19,10,2013,00,00*6E
$GPGGA,050013.07,3529.179434,N,13846.764658,E,1,08,0.9,800.65,M,28.4,M,,,*73
$GPZDA,050013.07,19,10,2013,00,00*6F
$GPGGA,050013.08,3529.179431,N,13846.764653,E,1,08,0.9,800.67,M,28.4,M,,,*70
$GPZDA,050013.08,19,10,2013,00,00*60
$GPGGA,050013.09,3529.179429,N,13846.764648,E,1,08,0.9,800.68,M,28.4,M,,,*7D
$GPZDA,050013.09,19,10,2013,00,00*61
$GPGGA,050013.10,3529.179426,N,13846.764643,E,1,08,0.9,800.69,M,28.4,M,,,*70
$GPZDA,050013.10,19,10,2013,00,00*69
$GPGGA,050013.11,3529.179423,N,13846.764638,E,1,08,0.9,800.70,M,28.4,M,,,*70
$GPZDA,050013.11,19,10,2013,00,00*68
$GPGGA,050013.12,3529.179420,N,13846.764632,E,1,08,0.9,800.72,M,28.4,M,,,*78
$GPZDA,050013.12,19,10,2013,00,00*6B
$GPGGA,050013.13,3529.179418,N,13846.764627,E,1,08,0.9,800.73,M,28.4,M,,,*77
$GPZDA,050013.13,19,10,2013,00,00*6A
$GPGGA,050013.14,3529.179415,N,13846.764622,E,1,08,0.9,800.74,M,28.4,M,,,*7F
$GPZDA,050013.14,19,10,2013,00,00*6D
$GPGGA,050013.15,3529.179412,N,13846.764616,E,1,08,0.9,800.76,M,28.4,M,,,*7C
$GPZDA,050013.15,19,10,2013,00,00*6C
$GPGGA,050013.16,3529.179410,N,13846.764611,E,1,08,0.9,800.77,M,28.4,M,,,*7B
$GPZDA,050013.16,19,10,2013,00,00*6F
$GPGGA,050013.17,3529.179407,N,13846.764606,E,1,08,0.9,800.78,M,28.4,M,,,*75
$GPZDA,050013.17,19,10,2013,00,00*6E
$GPGGA,050013.18,3529.179404,N,13846.764600,E,1,08,0.9,800.80,M,28.4,M,,,*78
$GPZDA,050013.18,19,10,2013,00,00*61
$GPGGA,050013.19,3529.179401,N,13846.764595,E,1,08,0.9,800.81,M,28.4,M,,,*72
$GPZDA,050013.19,19,10,2013,00,00*60
$GPGGA,050013.20,3529.179399,N,13846.764589,E,1,08,0.9,800.82,M,28.4,M,,,*70
$GPZDA,050013.20,19,10,2013,00,00*6A
$GPGGA,050013.21,3529.179396,N,13846.764584,E,1,08,0.9,800.84,M,28.4,M,,,*75
$GPZDA,050013.21,19,10,2013,00,00*6B
$GPGGA,050013.22,3529.179393,N,13846.764578,E,1,08,0.9,800.85,M,28.4,M,,,*71
$GPZDA,050013.22,19,10,2013,00,00*68
$GPGGA,050013.23,3529.179390,N,13846.764573,E,1,08,0.9,800.87,M,28.4,M,,,*7A
$GPZDA,050013.23,19,10,2013,00,00*69
$GPGGA,050013.24,3529.179388,N,13846.764567,E,1,08,0.9,800.88,M,28.4,M,,,*7E
$GPZDA,050013.24,19,10,2013,00,00*6E
$GPGGA,050013.25,3529.179385,N,13846.764561,E,1,08,0.9,800.89,M,28.4,M,,,*75
$GPZDA,050013.25,19,10,2013,00,00*6F
$GPGGA,050013.26,3529.179382,N,13846.764556,E,1,08,0.9,800.91,M,28.4,M,,,*7C
$GPZDA,050013.26,19,10,2013,00,00*6C
$GPGGA,050013.27,3529.179379,N,13846.764550,E,1,08,0.9,800.92,M,28.4,M,,,*7C
$GPZDA,050013.27,19,10,2013,00,00*6D
$GPGGA,050013.28,3529.179376,N,13846.764544,E,1,08,0.9,800.94,M,28.4,M,,,*7F
$GPZDA,050013.28,19,10,2013,00,00*62
$GPGGA,050013.29,3529.179373,N,13846.764538,E,1,08,0.9,800.95,M,28.4,M,,,*71
$GPZDA,050013.29,19,10,2013,00,00*63
$GPGGA,050013.30,3529.179371,N,13846.764533,E,1,08,0.9,800.96,M,28.4,M,,,*73
$GPZDA,050013.30,19,10,2013,00,00*6B
$GPGGA,050013.31,3529.179368,N,13846.764527,E,1,08,0.9,800.98,M,28.4,M,,,*71
$GPZDA,050013.31,19,10,2013,00,00*6A
$GPGGA,050013.32,3529.179365,N,13846.764521,E,1,08,0.9,800.99,M,28.4,M,,,*78
$GPZDA,050013.32,19,10,2013,00,00*69
$GPGGA,050013.33,3529.179362,N,13846.764515,E,1,08,0.9,801.01,M,28.4,M,,,*79
$GPZDA,050013.33,19,10,2013,00,00*68
$GPGGA,050013.34,3529.179359,N,13846.764509,E,1,08,0.9,801.02,M,28.4,M,,,*78
$GPZDA,050013.34,19,10,2013,00,00*6F
$GPGGA,050013.35,3529.179356,N,13846.764503,E,1,08,0.9,801.04,M,28.4,M,,,*7A
$GPZDA,050013.35,19,10,2013,00,00*6E
$GPGGA,050013.36,3529.179353,N,13846.764497,E,1,08,0.9,801.05,M,28.4,M,,,*71
$GPZDA,050013.36,19,10,2013,00,00*6D
$GPGGA,050013.37,3529.179350,N,13846.764491,E,1,08,0.9,801.07,M,28.4,M,,,*77
$GPZDA,050013.37,19,10,2013,00,00*6C
$GPGGA,050013.38,3529.179348,N,13846.764485,E,1,08,0.9,801.08,M,28.4,M,,,*7B
$GPZDA,050013.38,19,10,2013,00,00*63
$GPGGA,050013.39,3529.179345,N,13846.764479,E,1,08,0.9,801.10,M,28.4,M,,,*7D
$GPZDA,050013.39,19,10,2013,00,00*62
$GPGGA,050013.40,3529.179342,N,13846.764473,E,1,08,0.9,801.11,M,28.4,M,,,*7F
$GPZDA,050013.40,19,10,2013,00,00*6C
$GPGGA,050013.41,3529.179339,N,13846.764467,E,1,08,0.9,801.13,M,28.4,M,,,*75
$GPZDA,050013.41,19,10,2013,00,00*6D
$GPGGA,050013.42,3529.179336,N,13846.764461,E,1,08,0.9,801.14,M,28.4,M,,,*78
$GPZDA,050013.42,19,10,2013,00,00*6E
$GPGGA,050013.43,3529.179333,N,13846.764455,E,1,08,0.9,801.16,M,28.4,M,,,*79
$GPZDA,050013.43,19,10,2013,00,00*6F
$GPGGA,050013.44,3529.179330,N,13846.764449,E,1,08,0.9,801.17,M,28.4,M,,,*71
$GPZDA,050013.44,19,10,2013,00,00*68
$GPGGA,050013.45,3529.179327,N,13846.764443,E,1,08,0.9,801.19,M,28.4,M,,,*72
$GPZDA,050013.45,19,10,2013,00,00*69
$GPGGA,050013.46,3529.179324,N,13846.764437,E,1,08,0.9,801.20,M,28.4,M,,,*7B
$GPZDA,050013.46,19,10,2013,00,00*6A
$GPGGA,050013.47,3529.179321,N,13846.764430,E,1,08,0.9,801.22,M,28.4,M,,,*7A
$GPZDA,050013.47,19,10,2013,00,00*6B
$GPGGA,050013.48,3529.179318,N,13846.764424,E,1,08,0.9,801.23,M,28.4,M,,,*7B
$GPZDA,050013.48,19,10,2013,00,00*64
$GPGGA,050013.49,3529.179315,N,13846.764418,E,1,08,0.9,801.25,M,28.4,M,,,*7E
$GPZDA,050013.49,19,10,2013,00,00*65
$GPGGA,050013.50,3529.179312,N,13846.764411,E,1,08,0.9,801.27,M,28.4,M,,,*7A
$GPZDA,050013.50,19,10,2013,00,00*6D
$GPGGA,050013.51,3529.179309,N,13846.764405,E,1,08,0.9,801.28,M,28.4,M,,,*7B
$GPZDA,050013.51,19,10,2013,00,00*6C
$GPGGA,050013.52,3529.179306,N,13846.764399,E,1,08,0.9,801.30,M,28.4,M,,,*7C
$GPZDA,050013.52,19,10,2013,00,00*6F
$GPGGA,050013.53,3529.179303,N,13846.764392,E,1,08,0.9,801.31,M,28.4,M,,,*72
$GPZDA,050013.53,19,10,2013,00,00*6E
$GPGGA,050013.54,3529.179300,N,13846.764386,E,1,08,0.9,801.33,M,28.4,M,,,*71
$GPZDA,050013.54,19,10,2013,00,00*69
$GPGGA,050013.55,3529.179297,N,13846.764380,E,1,08,0.9,801.35,M,28.4,M,,,*7F
$GPZDA,050013.55,19,10,2013,00,00*68
$GPGGA,050013.56,3529.179294,N,13846.764373,E,1,08,0.9,801.36,M,28.4,M,,,*70
$GPZDA,050013.56,19,10,2013,00,00*6B
$GPGGA,050013.57,3529.179291,N,13846.764367,E,1,08,0.9,801.38,M,28.4,M,,,*7F
$GPZDA,050013.57,19,10,2013,00,00*6A
$GPGGA,050013.58,3529.179288,N,13846.764360,E,1,08,0.9,801.39,M,28.4,M,,,*7E
$GPZDA,050013.58,19,10,2013,00,00*65
$GPGGA,050013.59,3529.179285,N,13846.764354,E,1,08,0.9,801.41,M,28.4,M,,,*7A
$GPZDA,050013.59,19,10,2013,00,00*64
$GPGGA,050013.60,3529.179282,N,13846.764347,E,1,08,0.9,801.43,M,28.4,M,,,*77
$GPZDA,050013.60,19,10,2013,00,00*6E
$GPGGA,050013.61,3529.179279,N,13846.764340,E,1,08,0.9,801.44,M,28.4,M,,,*72
$GPZDA,050013.61,19,10,2013,00,00*6F
$GPGGA,050013.62,3529.179276,N,13846.764334,E,1,08,0.9,801.46,M,28.4,M,,,*7F
$GPZDA,050013.62,19,10,2013,00,00*6C
$GPGGA,050013.63,3529.179273,N,13846.764327,E,1,08,0.9,801.48,M,28.4,M,,,*77
$GPZDA,050013.63,19,10,2013,00,00*6D
$GPGGA,050013.64,3529.179270,N,13846.764320,E,1,08,0.9,801.49,M,28.4,M,,,*75
$GPZDA,050013.64,19,10,2013,00,00*6A
$GPGGA,050013.65,3529.179267,N,13846.764314,E,1,08,0.9,801.51,M,28.4,M,,,*7C
$GPZDA,050013.65,19,10,2013,00,00*6B
$GPGGA,050013.66,3529.179264,N,13846.764307,E,1,08,0.9,801.53,M,28.4,M,,,*7C
$GPZDA,050013.66,19,10,2013,00,00*68
$GPGGA,050013.67,3529.179260,N,13846.764300,E,1,08,0.9,801.54,M,28.4,M,,,*79
$GPZDA,050013.67,19,10,2013,00,00*69
$GPGGA,050013.68,3529.179257,N,13846.764293,E,1,08,0.9,801.56,M,28.4,M,,,*7B
$GPZDA,050013.68,19,10,2013,00,00*66
$GPGGA,050013.69,3529.179254,N,13846.764286,E,1,08,0.9,801.58,M,28.4,M,,,*73
$GPZDA,050013.69,19,10,2013,00,00*67
$GPGGA,050013.70,3529.179251,N,13846.764280,E,1,08,0.9,801.59,M,28.4,M,,,*79
$GPZDA,050013.70,19,10,2013,00,00*6F
$GPGGA,050013.71,3529.179248,N,13846.764273,E,1,08,0.9,801.61,M,28.4,M,,,*77
$GPZDA,050013.71,19,10,2013,00,00*6E
$GPGGA,050013.72,3529.179245,N,13846.764266,E,1,08,0.9,801.63,M,28.4,M,,,*7F
$GPZDA,050013.72,19,10,2013,00,00*6D
$GPGGA,050013.73,3529.179241,N,13846.764259,E,1,08,0.9,801.65,M,28.4,M,,,*70
$GPZDA,050013.73,19,10,2013,00,00*6C
$GPGGA,050013.74,3529.179238,N,13846.764252,E,1,08,0.9,801.66,M,28.4,M,,,*71
$GPZDA,050013.74,19,10,2013,00,00*6B
$GPGGA,050013.75,3529.179235,N,13846.764245,E,1,08,0.9,801.68,M,28.4,M,,,*75
$GPZDA,050013.75,19,10,2013,00,00*6A
$GPGGA,050013.76,3529.179232,N,13846.764237,E,1,08,0.9,801.70,M,28.4,M,,,*7D
$GPZDA,050013.76,19,10,2013,00,00*69
$GPGGA,050013.77,3529.179228,N,13846.764230,E,1,08,0.9,801.72,M,28.4,M,,,*72
$GPZDA,050013.77,19,10,2013,00,00*68
$GPGGA,050013.78,3529.179225,N,13846.764223,E,1,08,0.9,801.73,M,28.4,M,,,*73
$GPZDA,050013.78,19,10,2013,00,00*67
$GPGGA,050013.79,3529.179222,N,13846.764216,E,1,08,0.9,801.75,M,28.4,M,,,*75
$GPZDA,050013.79,19,10,2013,00,00*66
$GPGGA,050013.80,3529.179218,N,13846.764209,E,1,08,0.9,801.77,M,28.4,M,,,*76
$GPZDA,050013.80,19,10,2013,00,00*60
$GPGGA,050013.81,3529.179215,N,13846.764201,E,1,08,0.9,801.79,M,28.4,M,,,*7C
$GPZDA,050013.81,19,10,2013,00,00*61
$GPGGA,050013.82,3529.179211,N,13846.764194,E,1,08,0.9,801.80,M,28.4,M,,,*72
$GPZDA,050013.82,19,10,2013,00,00*62
$GPGGA,050013.83,3529.179208,N,13846.764187,E,1,08,0.9,801.82,M,28.4,M,,,*7B
$GPZDA,050013.83,19,10,2013,00,00*63
$GPGGA,050013.84,3529.179205,N,13846.764179,E,1,08,0.9,801.84,M,28.4,M,,,*76
$GPZDA,050013.84,19,10,2013,00,00*64
$GPGGA,050013.85,3529.179201,N,13846.764172,E,1,08,0.9,801.86,M,28.4,M,,,*7A
$GPZDA,050013.85,19,10,2013,00,00*65
$GPGGA,050013.86,3529.179198,N,13846.764164,E,1,08,0.9,801.88,M,28.4,M,,,*73
$GPZDA,050013.86,19,10,2013,00,00*66
$GPGGA,050013.87,3529.179194,N,13846.764157,E,1,08,0.9,801.90,M,28.4,M,,,*77
$GPZDA,050013.87,19,10,2013,00,00*67
$GPGGA,050013.88,3529.179191,N,13846.764149,E,1,08,0.9,801.91,M,28.4,M,,,*73
$GPZDA,050013.88,19,10,2013,00,00*68
$GPGGA,050013.89,3529.179187,N,13846.764142,E,1,08,0.9,801.93,M,28.4,M,,,*7C
$GPZDA,050013.89,19,10,2013,00,00*69
$GPGGA,050013.90,3529.179184,N,13846.764134,E,1,08,0.9,801.95,M,28.4,M,,,*70
$GPZDA,050013.90,19,10,2013,00,00*61
$GPGGA,050013.91,3529.179180,N,13846.764127,E,1,08,0.9,801.97,M,28.4,M,,,*75
$GPZDA,050013.91,19,10,2013,00,00*60
$GPGGA,050013.92,3529.179177,N,13846.764120,E,1,08,0.9,801.99,M,28.4,M,,,*77
$GPZDA,050013.92,19,10,2013,00,00*63
$GPGGA,050013.93,3529.179174,N,13846.764112,E,1,08,0.9,802.01,M,28.4,M,,,*76
$GPZDA,050013.93,19,10,2013,00,00*62
$GPGGA,050013.94,3529.179170,N,13846.764105,E,1,08,0.9,802.02,M,28.4,M,,,*70
$GPZDA,050013.94,19,10,2013,00,00*65
$GPGGA,050013.95,3529.179167,N,13846.764098,E,1,08,0.9,802.04,M,28.4,M,,,*74
$GPZDA,050013.95,19,10,2013,00,00*64
$GPGGA,050013.96,3529.179164,N,13846.764092,E,1,08,0.9,802.06,M,28.4,M,,,*7C
$GPZDA,050013.96,19,10,2013,00,00*67
$GPGGA,050013.97,3529.179161,N,13846.764085,E,1,08,0.9,802.08,M,28.4,M,,,*70
$GPZDA,050013.97,19,10,2013,00,00*66
$GPGGA,050013.98,3529.179158,N,13846.764079,E,1,08,0.9,802.10,M,28.4,M,,,*7F
$GPZDA,050013.98,19,10,2013,00,00*69
$GPGGA,050013.99,3529.179156,N,13846.764074,E,1,08,0.9,802.12,M,28.4,M,,,*7F
$GPZDA,050013.99,19,10,2013,00,00*68
$GPGGA,050014.00,3529.179154,N,13846.764069,E,1,08,0.9,802.14,M,28.4,M,,,*70
$GPZDA,050014.00,19,10,2013,00,00*6F
$GPGGA,050014.01,3529.179152,N,13846.764065,E,1,08,0.9,802.16,M,28.4,M,,,*79
$GPZDA,050014.01,19,10,2013,00,00*6E
$GPGGA,050014.02,3529.179151,N,13846.764061,E,1,08,0.9,802.18,M,28.4,M,,,*73
$GPZDA,050014.02,19,10,2013,00,00*6D
$GPGGA,050014.03,3529.179149,N,13846.764059,E,1,08,0.9,802.20,M,28.4,M,,,*7B
$GPZDA,050014.03,19,10,2013,00,00*6C
$GPGGA,050014.04,3529.179149,N,13846.764057,E,1,08,0.9,802.22,M,28.4,M,,,*70
$GPZDA,050014.04,19,10,2013,00,00*6B
$GPGGA,050014.05,3529.179149,N,13846.764056,E,1,08,0.9,802.24,M,28.4,M,,,*76
$GPZDA,050014.05,19,10,2013,00,00*6A
$GPGGA,050014.06,3529.179149,N,13846.764056,E,1,08,0.9,802.26,M,28.4,M,,,*77
$GPZDA,050014.06,19,10,2013,00,00*69
$GPGGA,050014.07,3529.179150,N,13846.764058,E,1,08,0.9,802.29,M,28.4,M,,,*7F
$GPZDA,050014.07,19,10,2013,00,00*68
$GPGGA,050014.08,3529.179152,N,13846.764061,E,1,08,0.9,802.31,M,28.4,M,,,*71
$GPZDA,050014.08,19,10,2013,00,00*67
$GPGGA,050014.09,3529.179155,N,13846.764065,E,1,08,0.9,802.33,M,28.4,M,,,*71
$GPZDA,050014.09,19,10,2013,00,00*66
$GPGGA,050014.10,3529.179158,N,13846.764070,E,1,08,0.9,802.35,M,28.4,M,,,*76
$GPZDA,050014.10,19,10,2013,00,00*6E
$GPGGA,050014.11,3529.179162,N,13846.764077,E,1,08,0.9,802.38,M,28.4,M,,,*74
$GPZDA,050014.11,19,10,2013,00,00*6F
$GPGGA,050014.12,3529.179166,N,13846.764086,E,1,08,0.9,802.40,M,28.4,M,,,*72
$GPZDA,050014.12,19,10,2013,00,00*6C
$GPGGA,050014.13,3529.179172,N,13846.764096,E,1,08,0.9,802.42,M,28.4,M,,,*75
$GPZDA,050014.13,19,10,2013,00,00*6D
$GPGGA,050014.14,3529.179178,N,13846.764107,E,1,08,0.9,802.45,M,28.4,M,,,*76
$GPZDA,050014.14,19,10,2013,00,00*6A
$GPGGA,050014.15,3529.179185,N,13846.764120,E,1,08,0.9,802.47,M,28.4,M,,,*72
$GPZDA,050014.15,19,10,2013,00,00*6B
$GPGGA,050014.16,3529.179193,N,13846.764135,E,1,08,0.9,802.50,M,28.4,M,,,*74
$GPZDA,050014.16,19,10,2013,00,00*68
$GPGGA,050014.17,3529.179201,N,13846.764152,E,1,08,0.9,802.52,M,28.4,M,,,*7E
$GPZDA,050014.17,19,10,2013,00,00*69
$GPGGA,050014.18,3529.179211,N,13846.764170,E,1,08,0.9,802.55,M,28.4,M,,,*77
$GPZDA,050014.18,19,10,2013,00,00*66
$GPGGA,050014.19,3529.179221,N,13846.764191,E,1,08,0.9,802.58,M,28.4,M,,,*77
$GPZDA,050014.19,19,10,2013,00,00*67
$GPGGA,050014.20,3529.179232,N,13846.764212,E,1,08,0.9,802.60,M,28.4,M,,,*7C
$GPZDA,050014.20,19,10,2013,00,00*6D
$GPGGA,050014.21,3529.179244,N,13846.764236,E,1,08,0.9,802.63,M,28.4,M,,,*79
$GPZDA,050014.21,19,10,2013,00,00*6C
$GPGGA,050014.22,3529.179257,N,13846.764261,E,1,08,0.9,802.66,M,28.4,M,,,*7F
$GPZDA,050014.22,19,10,2013,00,00*6F
$GPGGA,050014.23,3529.179271,N,13846.764288,E,1,08,0.9,802.69,M,28.4,M,,,*72
$GPZDA,050014.23,19,10,2013,00,00*6E
$GPGGA,050014.24,3529.179286,N,13846.764317,E,1,08,0.9,802.72,M,28.4,M,,,*70
$GPZDA,050014.24,19,10,2013,00,00*69
$GPGGA,050014.25,3529.179301,N,13846.764348,E,1,08,0.9,802.75,M,28.4,M,,,*72
$GPZDA,050014.25,19,10,2013,00,00*68
$GPGGA,050014.26,3529.179318,N,13846.764380,E,1,08,0.9,802.77,M,28.4,M,,,*7F
$GPZDA,050014.26,19,10,2013,00,00*6B
$GPGGA,050014.27,3529.179335,N,13846.764414,E,1,08,0.9,802.80,M,28.4,M,,,*73
$GPZDA,050014.27,19,10,2013,00,00*6A
$GPGGA,050014.28,3529.179353,N,13846.764449,E,1,08,0.9,802.83,M,28.4,M,,,*77
$GPZDA,050014.28,19,10,2013,00,00*65
$GPGGA,050014.29,3529.179372,N,13846.764486,E,1,08,0.9,802.86,M,28.4,M,,,*73
$GPZDA,050014.29,19,10,2013,00,00*64
$GPGGA,050014.30,3529.179391,N,13846.764525,E,1,08,0.9,802.89,M,28.4,M,,,*71
$GPZDA,050014.30,19,10,2013,00,00*6C
$GPGGA,050014.31,3529.179412,N,13846.764566,E,1,08,0.9,802.93,M,28.4,M,,,*70
$GPZDA,050014.31,19,10,2013,00,00*6D
$GPGGA,050014.32,3529.179433,N,13846.764608,E,1,08,0.9,802.96,M,28.4,M,,,*7E
$GPZDA,050014.32,19,10,2013,00,00*6E
$GPGGA,050014.33,3529.179456,N,13846.764652,E,1,08,0.9,802.99,M,28.4,M,,,*7C
$GPZDA,050014.33,19,10,2013,00,00*6F
$GPGGA,050014.34,3529.179479,N,13846.764698,E,1,08,0.9,803.02,M,28.4,M,,,*73
$GPZDA,050014.34,19,10,2013,00,00*68
$GPGGA,050014.35,3529.179503,N,13846.764745,E,1,08,0.9,803.05,M,28.4,M,,,*78
$GPZDA,050014.35,19,10,2013,00,00*69
$GPGGA,050014.36,3529.179528,N,13846.764794,E,1,08,0.9,803.09,M,28.4,M,,,*72
$GPZDA,050014.36,19,10,2013,00,00*6A
$GPGGA,050014.37,3529.179554,N,13846.764845,E,1,08,0.9,803.12,M,28.4,M,,,*71
$GPZDA,050014.37,19,10,2013,00,00*6B
$GPGGA,050014.38,3529.179580,N,13846.764897,E,1,08,0.9,803.15,M,28.4,M,,,*7F
$GPZDA,050014.38,19,10,2013,00,00*64
$GPGGA,050014.39,3529.179608,N,13846.764951,E,1,08,0.9,803.19,M,28.4,M,,,*7A
$GPZDA,050014.39,19,10,2013,00,00*65
$GPGGA,050014.40,3529.179636,N,13846.765006,E,1,08,0.9,803.22,M,28.4,M,,,*7B
$GPZDA,050014.40,19,10,2013,00,00*6B
$GPGGA,050014.41,3529.179665,N,13846.765063,E,1,08,0.9,803.25,M,28.4,M,,,*78
$GPZDA,050014.41,19,10,2013,00,00*6A
$GPGGA,050014.42,3529.179695,N,13846.765122,E,1,08,0.9,803.29,M,28.4,M,,,*7C
$GPZDA,050014.42,19,10,2013,00,00*69
$GPGGA,050014.43,3529.179726,N,13846.765183,E,1,08,0.9,803.32,M,28.4,M,,,*75
$GPZDA,050014.43,19,10,2013,00,00*68
$GPGGA,050014.44,3529.179758,N,13846.765245,E,1,08,0.9,803.36,M,28.4,M,,,*76
$GPZDA,050014.44,19,10,2013,00,00*6F
$GPGGA,050014.45,3529.179791,N,13846.765309,E,1,08,0.9,803.39,M,28.4,M,,,*74
$GPZDA,050014.45,19,10,2013,00,00*6E
$GPGGA,050014.46,3529.179825,N,13846.765375,E,1,08,0.9,803.43,M,28.4,M,,,*71
$GPZDA,050014.46,19,10,2013,00,00*6D
$GPGGA,050014.47,3529.179859,N,13846.765442,E,1,08,0.9,803.46,M,28.4,M,,,*7D
$GPZDA,050014.47,19,10,2013,00,00*6C
$GPGGA,050014.48,3529.179895,N,13846.765511,E,1,08,0.9,803.50,M,28.4,M,,,*72
$GPZDA,050014.48,19,10,2013,00,00*63
$GPGGA,050014.49,3529.179931,N,13846.765581,E,1,08,0.9,803.53,M,28.4,M,,,*76
$GPZDA,050014.49,19,10,2013,00,00*62
$GPGGA,050014.50,3529.179968,N,13846.765653,E,1,08,0.9,803.57,M,28.4,M,,,*7A
$GPZDA,050014.50,19,10,2013,00,00*6A
$GPGGA,050014.51,3529.180006,N,13846.765727,E,1,08,0.9,803.61,M,28.4,M,,,*7B
$GPZDA,050014.51,19,10,2013,00,00*6B
$GPGGA,050014.52,3529.180045,N,13846.765802,E,1,08,0.9,803.64,M,28.4,M,,,*72
$GPZDA,050014.52,19,10,2013,00,00*68
$GPGGA,050014.53,3529.180085,N,13846.765879,E,1,08,0.9,803.68,M,28.4,M,,,*7F
$GPZDA,050014.53,19,10,2013,00,00*69
$GPGGA,050014.54,3529.180125,N,13846.765958,E,1,08,0.9,803.71,M,28.4,M,,,*79
$GPZDA,050014.54,19,10,2013,00,00*6E
$GPGGA,050014.55,3529.180167,N,13846.766038,E,1,08,0.9,803.75,M,28.4,M,,,*76
$GPZDA,050014.55,19,10,2013,00,00*6F
$GPGGA,050014.56,3529.180209,N,13846.766120,E,1,08,0.9,803.79,M,28.4,M,,,*7A
$GPZDA,050014.56,19,10,2013,00,00*6C
$GPGGA,050014.57,3529.180253,N,13846.766204,E,1,08,0.9,803.82,M,28.4,M,,,*75
$GPZDA,050014.57,19,10,2013,00,00*6D
$GPGGA,050014.58,3529.180297,N,13846.766289,E,1,08,0.9,803.86,M,28.4,M,,,*73
$GPZDA,050014.58,19,10,2013,00,00*62
$GPGGA,050014.59,3529.180342,N,13846.766376,E,1,08,0.9,803.90,M,28.4,M,,,*7D
$GPZDA,050014.59,19,10,2013,00,00*63
$GPGGA,050014.60,3529.180387,N,13846.766464,E,1,08,0.9,803.94,M,28.4,M,,,*7E
$GPZDA,050014.60,19,10,2013,00,00*69
$GPGGA,050014.61,3529.180434,N,13846.766554,E,1,08,0.9,803.97,M,28.4,M,,,*71
$GPZDA,050014.61,19,10,2013,00,00*68
$GPGGA,050014.62,3529.180482,N,13846.766646,E,1,08,0.9,804.01,M,28.4,M,,,*77
$GPZDA,050014.62,19,10,2013,00,00*6B
$GPGGA,050014.63,3529.180530,N,13846.766739,E,1,08,0.9,804.05,M,28.4,M,,,*73
$GPZDA,050014.63,19,10,2013,00,00*6A
$GPGGA,050014.64,3529.180579,N,13846.766833,E,1,08,0.9,804.09,M,28.4,M,,,*70
$GPZDA,050014.64,19,10,2013,00,00*6D
$GPGGA,050014.65,3529.180629,N,13846.766930,E,1,08,0.9,804.12,M,28.4,M,,,*7F
$GPZDA,050014.65,19,10,2013,00,00*6C
$GPGGA,050014.66,3529.180680,N,13846.767028,E,1,08,0.9,804.16,M,28.4,M,,,*7A
$GPZDA,050014.66,19,10,2013,00,00*6F
$GPGGA,050014.67,3529.180732,N,13846.767127,E,1,08,0.9,804.20,M,28.4,M,,,*78
$GPZDA,050014.67,19,10,2013,00,00*6E
$GPGGA,050014.68,3529.180785,N,13846.767228,E,1,08,0.9,804.24,M,28.4,M,,,*73
$GPZDA,050014.68,19,10,2013,00,00*61
$GPGGA,050014.69,3529.180838,N,13846.767330,E,1,08,0.9,804.28,M,28.4,M,,,*7F
$GPZDA,050014.69,19,10,2013,00,00*60
$GPGGA,050014.70,3529.180892,N,13846.767435,E,1,08,0.9,804.31,M,28.4,M,,,*7D
$GPZDA,050014.70,19,10,2013,00,00*68
$GPGGA,050014.71,3529.180948,N,13846.767540,E,1,08,0.9,804.35,M,28.4,M,,,*7D
$GPZDA,050014.71,19,10,2013,00,00*69
$GPGGA,050014.72,3529.181004,N,13846.767648,E,1,08,0.9,804.39,M,28.4,M,,,*79
$GPZDA,050014.72,19,10,2013,00,00*6A
$GPGGA,050014.73,3529.181060,N,13846.767756,E,1,08,0.9,804.43,M,28.4,M,,,*79
$GPZDA,050014.73,19,10,2013,00,00*6B
$GPGGA,050014.74,3529.181118,N,13846.767867,E,1,08,0.9,804.47,M,28.4,M,,,*79
$GPZDA,050014.74,19,10,2013,00,00*6C
$GPGGA,050014.75,3529.181177,N,13846.767979,E,1,08,0.9,804.51,M,28.4,M,,,*78
$GPZDA,050014.75,19,10,2013,00,00*6D
$GPGGA,050014.76,3529.181236,N,13846.768092,E,1,08,0.9,804.55,M,28.4,M,,,*7A
$GPZDA,050014.76,19,10,2013,00,00*6E
$GPGGA,050014.77,3529.181296,N,13846.768208,E,1,08,0.9,804.59,M,28.4,M,,,*7C
$GPZDA,050014.77,19,10,2013,00,00*6F
$GPGGA,050014.78,3529.181357,N,13846.768324,E,1,08,0.9,804.63,M,28.4,M,,,*79
$GPZDA,050014.78,19,10,2013,00,00*60
$GPGGA,050014.79,3529.181419,N,13846.768442,E,1,08,0.9,804.67,M,28.4,M,,,*76
$GPZDA,050014.79,19,10,2013,00,00*61
$GPGGA,050014.80,3529.181482,N,13846.768562,E,1,08,0.9,804.71,M,28.4,M,,,*76
$GPZDA,050014.80,19,10,2013,00,00*67
$GPGGA,050014.81,3529.181545,N,13846.768683,E,1,08,0.9,804.75,M,28.4,M,,,*75
$GPZDA,050014.81,19,10,2013,00,00*66
$GPGGA,050014.82,3529.181610,N,13846.768806,E,1,08,0.9,804.79,M,28.4,M,,,*7A
$GPZDA,050014.82,19,10,2013,00,00*65
$GPGGA,050014.83,3529.181675,N,13846.768931,E,1,08,0.9,804.83,M,28.4,M,,,*78
$GPZDA,050014.83,19,10,2013,00,00*64
$GPGGA,050014.84,3529.181741,N,13846.769056,E,1,08,0.9,804.87,M,28.4,M,,,*74
$GPZDA,050014.84,19,10,2013,00,00*63
$GPGGA,050014.85,3529.181808,N,13846.769184,E,1,08,0.9,804.91,M,28.4,M,,,*7E
$GPZDA,050014.85,19,10,2013,00,00*62
$GPGGA,050014.86,3529.181875,N,13846.769313,E,1,08,0.9,804.95,M,28.4,M,,,*7F
$GPZDA,050014.86,19,10,2013,00,00*61
$GPGGA,050014.87,3529.181944,N,13846.769443,E,1,08,0.9,804.99,M,28.4,M,,,*73
$GPZDA,050014.87,19,10,2013,00,00*60
$GPGGA,050014.88,3529.182013,N,13846.769575,E,1,08,0.9,805.03,M,28.4,M,,,*72
$GPZDA,050014.88,19,10,2013,00,00*6F
$GPGGA,050014.89,3529.182083,N,13846.769708,E,1,08,0.9,805.07,M,28.4,M,,,*76
$GPZDA,050014.89,19,10,2013,00,00*6E
$GPGGA,050014.90,3529.182153,N,13846.769842,E,1,08,0.9,805.11,M,28.4,M,,,*74
$GPZDA,050014.90,19,10,2013,00,00*66
$GPGGA,050014.91,3529.182225,N,13846.769978,E,1,08,0.9,805.15,M,28.4,M,,,*7B
$GPZDA,050014.91,19,10,2013,00,00*67
$GPGGA,050014.92,3529.182297,N,13846.770116,E,1,08,0.9,805.19,M,28.4,M,,,*75
$GPZDA,050014.92,19,10,2013,00,00*64
$GPGGA,050014.93,3529.182370,N,13846.770255,E,1,08,0.9,805.24,M,28.4,M,,,*76
$GPZDA,050014.93,19,10,2013,00,00*65
$GPGGA,050014.94,3529.182444,N,13846.770395,E,1,08,0.9,805.28,M,28.4,M,,,*70
$GPZDA,050014.94,19,10,2013,00,00*62
$GPGGA,050014.95,3529.182519,N,13846.770537,E,1,08,0.9,805.32,M,28.4,M,,,*7D
$GPZDA,050014.95,19,10,2013,00,00*63
$GPGGA,050014.96,3529.182594,N,13846.770680,E,1,08,0.9,805.36,M,28.4,M,,,*70
$GPZDA,050014.96,19,10,2013,00,00*60
$GPGGA,050014.97,3529.182671,N,13846.770824,E,1,08,0.9,805.40,M,28.4,M,,,*78
$GPZDA,050014.97,19,10,2013,00,00*61
$GPGGA,050014.98,3529.182747,N,13846.770970,E,1,08,0.9,805.44,M,28.4,M,,,*77
$GPZDA,050014.98,19,10,2013,00,00*6E
$GPGGA,050014.99,3529.182825,N,13846.771117,E,1,08,0.9,805.49,M,28.4,M,,,*78
$GPZDA,050014.99,19,10,2013,00,00*6F
$GPGGA,050015.00,3529.182903,N,13846.771266,E,1,08,0.9,805.53,M,28.4,M,,,*72
$GPZDA,050015.00,19,10,2013,00,00*6E
$GPGGA,050015.01,3529.182982,N,13846.771416,E,1,08,0.9,805.57,M,28.4,M,,,*7F
$GPZDA,050015.01,19,10,2013,00,00*6F
$GPGGA,050015.02,3529.183062,N,13846.771568,E,1,08,0.9,805.61,M,28.4,M,,,*77
$GPZDA,050015.02,19,10,2013,00,00*6C
$GPGGA,050015.03,3529.183143,N,13846.771720,E,1,08,0.9,805.66,M,28.4,M,,,*7D
$GPZDA,050015.03,19,10,2013,00,00*6D
$GPGGA,050015.04,3529.183224,N,13846.771875,E,1,08,0.9,805.70,M,28.4,M,,,*70
$GPZDA,050015.04,19,10,2013,00,00*6A
$GPGGA,050015.05,3529.183305,N,13846.772030,E,1,08,0.9,805.74,M,28.4,M,,,*7D
$GPZDA,050015.05,19,10,2013,00,00*6B
$GPGGA,050015.06,3529.183388,N,13846.772187,E,1,08,0.9,805.79,M,28.4,M,,,*7B
$GPZDA,050015.06,19,10,2013,00,00*68
$GPGGA,050015.07,3529.183471,N,13846.772345,E,1,08,0.9,805.83,M,28.4,M,,,*72
$GPZDA,050015.07,19,10,2013,00,00*69
$GPGGA,050015.08,3529.183554,N,13846.772505,E,1,08,0.9,805.88,M,28.4,M,,,*72
$GPZDA,050015.08,19,10,2013,00,00*66
$GPGGA,050015.09,3529.183639,N,13846.772666,E,1,08,0.9,805.92,M,28.4,M,,,*76
$GPZDA,050015.09,19,10,2013,00,00*67
$GPGGA,050015.10,3529.183724,N,13846.772829,E,1,08,0.9,805.97,M,28.4,M,,,*73
$GPZDA,050015.10,19,10,2013,00,00*6F
$GPGGA,050015.11,3529.183809,N,13846.772993,E,1,08,0.9,806.01,M,28.4,M,,,*7E
$GPZDA,050015.11,19,10,2013,00,00*6E
$GPGGA,050015.12,3529.183895,N,13846.773158,E,1,08,0.9,806.06,M,28.4,M,,,*71
$GPZDA,050015.12,19,10,2013,00,00*6D
$GPGGA,050015.13,3529.183982,N,13846.773325,E,1,08,0.9,806.10,M,28.4,M,,,*78
$GPZDA,050015.13,19,10,2013,00,00*6C
$GPGGA,050015.14,3529.184069,N,13846.773493,E,1,08,0.9,806.15,M,28.4,M,,,*7B
$GPZDA,050015.14,19,10,2013,00,00*6B
$GPGGA,050015.15,3529.184157,N,13846.773662,E,1,08,0.9,806.20,M,28.4,M,,,*7C
$GPZDA,050015.15,19,10,2013,00,00*6A
$GPGGA,050015.16,3529.184246,N,13846.773832,E,1,08,0.9,806.24,M,28.4,M,,,*73
$GPZDA,050015.16,19,10,2013,00,00*69
$GPGGA,050015.17,3529.184335,N,13846.774004,E,1,08,0.9,806.29,M,28.4,M,,,*70
$GPZDA,050015.17,19,10,2013,00,00*68
$GPGGA,050015.18,3529.184424,N,13846.774177,E,1,08,0.9,806.34,M,28.4,M,,,*71
$GPZDA,050015.18,19,10,2013,00,00*67
$GPGGA,050015.19,3529.184515,N,13846.774351,E,1,08,0.9,806.39,M,28.4,M,,,*78
$GPZDA,050015.19,19,10,2013,00,00*66
$GPGGA,050015.20,3529.184605,N,13846.774527,E,1,08,0.9,806.43,M,28.4,M,,,*7A
$GPZDA,050015.20,19,10,2013,00,00*6C
$GPGGA,050015.21,3529.184697,N,13846.774704,E,1,08,0.9,806.48,M,28.4,M,,,*78
$GPZDA,050015.21,19,10,2013,00,00*6D
$GPGGA,050015.22,3529.184789,N,13846.774882,E,1,08,0.9,806.53,M,28.4,M,,,*7E
$GPZDA,050015.22,19,10,2013,00,00*6E
$GPGGA,050015.23,3529.184881,N,13846.775061,E,1,08,0.9,806.58,M,28.4,M,,,*77
$GPZDA,050015.23,19,10,2013,00,00*6F
$GPGGA,050015.24,3529.184975,N,13846.775241,E,1,08,0.9,806.63,M,28.4,M,,,*72
$GPZDA,050015.24,19,10,2013,00,00*68
$GPGGA,050015.25,3529.185068,N,13846.775423,E,1,08,0.9,806.68,M,28.4,M,,,*7E
$GPZDA,050015.25,19,10,2013,00,00*69
$GPGGA,050015.26,3529.185163,N,13846.775606,E,1,08,0.9,806.73,M,28.4,M,,,*78
$GPZDA,050015.26,19,10,2013,00,00*6A
