$GPGGA,132218.61,3529.179800,N,13846.765320,E,1,08,0.9,800.00,M,28.4,M,,,*7C
$GPZDA,132218.61,11,11,2013,00,00*6A
$GPGGA,132218.71,3529.179783,N,13846.765318,E,1,08,0.9,799.99,M,28.4,M,,,*7D
$GPZDA,132218.71,11,11,2013,00,00*6B
$GPGGA,132218.81,3529.179749,N,13846.765313,E,1,08,0.9,799.98,M,28.4,M,,,*7E
$GPZDA,132218.81,11,11,2013,00,00*64
$GPGGA,132218.91,3529.179697,N,13846.765306,E,1,08,0.9,799.96,M,28.4,M,,,*77
$GPZDA,132218.91,11,11,2013,00,00*65
$GPGGA,132219.01,3529.179629,N,13846.765296,E,1,08,0.9,799.94,M,28.4,M,,,*70
$GPZDA,132219.01,11,11,2013,00,00*6D
$GPGGA,132219.11,3529.179543,N,13846.765284,E,1,08,0.9,799.91,M,28.4,M,,,*78
$GPZDA,132219.11,11,11,2013,00,00*6C
$GPGGA,132219.21,3529.179440,N,13846.765270,E,1,08,0.9,799.87,M,28.4,M,,,*75
$GPZDA,132219.21,11,11,2013,00,00*6F
$GPGGA,132219.31,3529.179321,N,13846.765253,E,1,08,0.9,799.82,M,28.4,M,,,*70
$GPZDA,132219.31,11,11,2013,00,00*6E
$GPGGA,132219.41,3529.179184,N,13846.765234,E,1,08,0.9,799.77,M,28.4,M,,,*71
$GPZDA,132219.41,11,11,2013,00,00*69
$GPGGA,132219.51,3529.179030,N,13846.765213,E,1,08,0.9,799.72,M,28.4,M,,,*7E
$GPZDA,132219.51,11,11,2013,00,00*68
$GPGGA,132219.61,3529.178858,N,13846.765189,E,1,08,0.9,799.65,M,28.4,M,,,*7C
$GPZDA,132219.61,11,11,2013,00,00*6B
$GPGGA,132219.71,3529.178669,N,13846.765163,E,1,08,0.9,799.59,M,28.4,M,,,*7A
$GPZDA,132219.71,11,11,2013,00,00*6A
$GPGGA,132219.81,3529.178463,N,13846.765135,E,1,08,0.9,799.52,M,28.4,M,,,*75
$GPZDA,132219.81,11,11,2013,00,00*65
$GPGGA,132219.91,3529.178239,N,13846.765104,E,1,08,0.9,799.44,M,28.4,M,,,*78
$GPZDA,132219.91,11,11,2013,00,00*64
$GPGGA,132220.01,3529.177998,N,13846.765071,E,1,08,0.9,799.36,M,28.4,M,,,*72
$GPZDA,132220.01,11,11,2013,00,00*67
$GPGGA,132220.11,3529.177739,N,13846.765036,E,1,08,0.9,799.27,M,28.4,M,,,*75
$GPZDA,132220.11,11,11,2013,00,00*66
$GPGGA,132220.21,3529.177463,N,13846.764999,E,1,08,0.9,799.18,M,28.4,M,,,*7B
$GPZDA,132220.21,11,11,2013,00,00*65
$GPGGA,132220.31,3529.177170,N,13846.764959,E,1,08,0.9,799.09,M,28.4,M,,,*71
$GPZDA,132220.31,11,11,2013,00,00*64
$GPGGA,132220.41,3529.176859,N,13846.764917,E,1,08,0.9,798.99,M,28.4,M,,,*77
$GPZDA,132220.41,11,11,2013,00,00*63
$GPGGA,132220.51,3529.176530,N,13846.764873,E,1,08,0.9,798.88,M,28.4,M,,,*77
$GPZDA,132220.51,11,11,2013,00,00*62
$GPGGA,132220.61,3529.176184,N,13846.764826,E,1,08,0.9,798.77,M,28.4,M,,,*7F
$GPZDA,132220.61,11,11,2013,00,00*61
$GPGGA,132220.71,3529.175821,N,13846.764778,E,1,08,0.9,798.66,M,28.4,M,,,*7F
$GPZDA,132220.71,11,11,2013,00,00*60
$GPGGA,132220.81,3529.175440,N,13846.764727,E,1,08,0.9,798.54,M,28.4,M,,,*70
$GPZDA,132220.81,11,11,2013,00,00*6F
$GPGGA,132220.91,3529.175041,N,13846.764674,E,1,08,0.9,798.41,M,28.4,M,,,*77
$GPZDA,132220.91,11,11,2013,00,00*6E
$GPGGA,132221.01,3529.174624,N,13846.764617,E,1,08,0.9,798.28,M,28.4,M,,,*71
$GPZDA,132221.01,11,11,2013,00,00*66
$GPGGA,132221.11,3529.174189,N,13846.764556,E,1,08,0.9,798.14,M,28.4,M,,,*79
$GPZDA,132221.11,11,11,2013,00,00*67
$GPGGA,132221.21,3529.173741,N,13846.764510,E,1,08,0.9,797.97,M,28.4,M,,,*79
$GPZDA,132221.21,11,11,2013,00,00*64
$GPGGA,132221.31,3529.173274,N,13846.764477,E,1,08,0.9,797.80,M,28.4,M,,,*7D
$GPZDA,132221.31,11,11,2013,00,00*65
$GPGGA,132221.41,3529.172773,N,13846.764425,E,1,08,0.9,797.75,M,28.4,M,,,*74
$GPZDA,132221.41,11,11,2013,00,00*62
$GPGGA,132221.51,3529.172192,N,13846.764389,E,1,08,0.9,797.89,M,28.4,M,,,*7E
$GPZDA,132221.51,11,11,2013,00,00*63
$GPGGA,132221.61,3529.171517,N,13846.764368,E,1,08,0.9,798.30,M,28.4,M,,,*75
$GPZDA,132221.61,11,11,2013,00,00*60
$GPGGA,132221.71,3529.170761,N,13846.764356,E,1,08,0.9,799.03,M,28.4,M,,,*7A
$GPZDA,132221.71,11,11,2013,00,00*61
$GPGGA,132221.81,3529.169925,N,13846.764326,E,1,08,0.9,800.15,M,28.4,M,,,*7C
$GPZDA,132221.81,11,11,2013,00,00*6E
$GPGGA,132221.91,3529.169011,N,13846.764278,E,1,08,0.9,801.65,M,28.4,M,,,*7F
$GPZDA,132221.91,11,11,2013,00,00*6F
$GPGGA,132222.01,3529.168026,N,13846.764223,E,1,08,0.9,803.51,M,28.4,M,,,*7B
$GPZDA,132222.01,11,11,2013,00,00*65
$GPGGA,132222.11,3529.166968,N,13846.764157,E,1,08,0.9,805.74,M,28.4,M,,,*76
$GPZDA,132222.11,11,11,2013,00,00*64
$GPGGA,132222.21,3529.165833,N,13846.764075,E,1,08,0.9,808.35,M,28.4,M,,,*70
$GPZDA,132222.21,11,11,2013,00,00*67
$GPGGA,132222.31,3529.164612,N,13846.763968,E,1,08,0.9,811.35,M,28.4,M,,,*77
$GPZDA,132222.31,11,11,2013,00,00*66
$GPGGA,132222.41,3529.163308,N,13846.763835,E,1,08,0.9,814.70,M,28.4,M,,,*74
$GPZDA,132222.41,11,11,2013,00,00*61
$GPGGA,132222.51,3529.161920,N,13846.763670,E,1,08,0.9,818.40,M,28.4,M,,,*77
$GPZDA,132222.51,11,11,2013,00,00*60
$GPGGA,132222.61,3529.160452,N,13846.763474,E,1,08,0.9,822.44,M,28.4,M,,,*76
$GPZDA,132222.61,11,11,2013,00,00*63
$GPGGA,132222.71,3529.158899,N,13846.763241,E,1,08,0.9,826.84,M,28.4,M,,,*7F
$GPZDA,132222.71,11,11,2013,00,00*62
$GPGGA,132222.81,3529.157263,N,13846.762962,E,1,08,0.9,831.57,M,28.4,M,,,*73
$GPZDA,132222.81,11,11,2013,00,00*6D
$GPGGA,132222.91,3529.155539,N,13846.762634,E,1,08,0.9,836.63,M,28.4,M,,,*74
$GPZDA,132222.91,11,11,2013,00,00*6C
$GPGGA,132223.01,3529.153722,N,13846.762259,E,1,08,0.9,842.00,M,28.4,M,,,*7B
$GPZDA,132223.01,11,11,2013,00,00*64
$GPGGA,132223.11,3529.151815,N,13846.761828,E,1,08,0.9,847.66,M,28.4,M,,,*79
$GPZDA,132223.11,11,11,2013,00,00*65
$GPGGA,132223.21,3529.149819,N,13846.761340,E,1,08,0.9,853.59,M,28.4,M,,,*73
$GPZDA,132223.21,11,11,2013,00,00*66
$GPGGA,132223.31,3529.147729,N,13846.760786,E,1,08,0.9,859.80,M,28.4,M,,,*71
$GPZDA,132223.31,11,11,2013,00,00*67
$GPGGA,132223.41,3529.145543,N,13846.760163,E,1,08,0.9,866.30,M,28.4,M,,,*70
$GPZDA,132223.41,11,11,2013,00,00*60
$GPGGA,132223.51,3529.143264,N,13846.759475,E,1,08,0.9,873.07,M,28.4,M,,,*7D
$GPZDA,132223.51,11,11,2013,00,00*61
$GPGGA,132223.61,3529.140908,N,13846.758716,E,1,08,0.9,880.12,M,28.4,M,,,*73
$GPZDA,132223.61,11,11,2013,00,00*62
$GPGGA,132223.71,3529.138481,N,13846.757888,E,1,08,0.9,887.43,M,28.4,M,,,*75
$GPZDA,132223.71,11,11,2013,00,00*63
$GPGGA,132223.81,3529.135979,N,13846.756989,E,1,08,0.9,894.99,M,28.4,M,,,*79
$GPZDA,132223.81,11,11,2013,00,00*6C
$GPGGA,132223.91,3529.133416,N,13846.756034,E,1,08,0.9,902.81,M,28.4,M,,,*72
$GPZDA,132223.91,11,11,2013,00,00*6D
$GPGGA,132224.01,3529.130794,N,13846.755023,E,1,08,0.9,910.88,M,28.4,M,,,*79
$GPZDA,132224.01,11,11,2013,00,00*63
$GPGGA,132224.11,3529.128114,N,13846.753960,E,1,08,0.9,919.24,M,28.4,M,,,*78
$GPZDA,132224.11,11,11,2013,00,00*62
$GPGGA,132224.21,3529.125377,N,13846.752849,E,1,08,0.9,927.87,M,28.4,M,,,*7E
$GPZDA,132224.21,11,11,2013,00,00*61
$GPGGA,132224.31,3529.122579,N,13846.751690,E,1,08,0.9,936.77,M,28.4,M,,,*76
$GPZDA,132224.31,11,11,2013,00,00*60
$GPGGA,132224.41,3529.119727,N,13846.750487,E,1,08,0.9,945.91,M,28.4,M,,,*79
$GPZDA,132224.41,11,11,2013,00,00*67
$GPGGA,132224.51,3529.116818,N,13846.749240,E,1,08,0.9,955.30,M,28.4,M,,,*7B
$GPZDA,132224.51,11,11,2013,00,00*66
$GPGGA,132224.61,3529.113863,N,13846.747941,E,1,08,0.9,964.92,M,28.4,M,,,*7F
$GPZDA,132224.61,11,11,2013,00,00*65
$GPGGA,132224.71,3529.110843,N,13846.746590,E,1,08,0.9,974.79,M,28.4,M,,,*7A
$GPZDA,132224.71,11,11,2013,00,00*64
$GPGGA,132224.81,3529.107760,N,13846.745186,E,1,08,0.9,984.87,M,28.4,M,,,*73
$GPZDA,132224.81,11,11,2013,00,00*6B
$GPGGA,132224.91,3529.104616,N,13846.743734,E,1,08,0.9,995.16,M,28.4,M,,,*70
$GPZDA,132224.91,11,11,2013,00,00*6A
$GPGGA,132225.01,3529.101415,N,13846.742235,E,1,08,0.9,1005.65,M,28.4,M,,,*4C
$GPZDA,132225.01,11,11,2013,00,00*62
$GPGGA,132225.11,3529.098159,N,13846.740681,E,1,08,0.9,1016.34,M,28.4,M,,,*4E
$GPZDA,132225.11,11,11,2013,00,00*63
$GPGGA,132225.21,3529.094853,N,13846.739077,E,1,08,0.9,1027.25,M,28.4,M,,,*41
$GPZDA,132225.21,11,11,2013,00,00*60
$GPGGA,132225.31,3529.091497,N,13846.737423,E,1,08,0.9,1038.37,M,28.4,M,,,*47
$GPZDA,132225.31,11,11,2013,00,00*61
$GPGGA,132225.41,3529.088099,N,13846.735728,E,1,08,0.9,1049.71,M,28.4,M,,,*4C
$GPZDA,132225.41,11,11,2013,00,00*66
$GPGGA,132225.51,3529.084656,N,13846.733996,E,1,08,0.9,1061.28,M,28.4,M,,,*4F
$GPZDA,132225.51,11,11,2013,00,00*67
$GPGGA,132225.61,3529.081170,N,13846.732232,E,1,08,0.9,1073.03,M,28.4,M,,,*44
$GPZDA,132225.61,11,11,2013,00,00*64
$GPGGA,132225.71,3529.077641,N,13846.730437,E,1,08,0.9,1084.96,M,28.4,M,,,*4C
$GPZDA,132225.71,11,11,2013,00,00*65
$GPGGA,132225.81,3529.074077,N,13846.728615,E,1,08,0.9,1097.04,M,28.4,M,,,*41
$GPZDA,132225.81,11,11,2013,00,00*6A
$GPGGA,132225.91,3529.070485,N,13846.726773,E,1,08,0.9,1109.14,M,28.4,M,,,*45
$GPZDA,132225.91,11,11,2013,00,00*6B
$GPGGA,132226.01,3529.066892,N,13846.724923,E,1,08,0.9,1121.19,M,28.4,M,,,*4C
$GPZDA,132226.01,11,11,2013,00,00*61
$GPGGA,132226.11,3529.063303,N,13846.723071,E,1,08,0.9,1133.14,M,28.4,M,,,*4C
$GPZDA,132226.11,11,11,2013,00,00*60
$GPGGA,132226.21,3529.059713,N,13846.721223,E,1,08,0.9,1145.00,M,28.4,M,,,*40
$GPZDA,132226.21,11,11,2013,00,00*63
$GPGGA,132226.31,3529.056125,N,13846.719381,E,1,08,0.9,1156.75,M,28.4,M,,,*4F
$GPZDA,132226.31,11,11,2013,00,00*62
$GPGGA,132226.41,3529.052541,N,13846.717552,E,1,08,0.9,1168.36,M,28.4,M,,,*46
$GPZDA,132226.41,11,11,2013,00,00*65
$GPGGA,132226.51,3529.048959,N,13846.715733,E,1,08,0.9,1179.85,M,28.4,M,,,*46
$GPZDA,132226.51,11,11,2013,00,00*64
$GPGGA,132226.61,3529.045379,N,13846.713923,E,1,08,0.9,1191.20,M,28.4,M,,,*40
$GPZDA,132226.61,11,11,2013,00,00*67
$GPGGA,132226.71,3529.041801,N,13846.712115,E,1,08,0.9,1202.43,M,28.4,M,,,*41
$GPZDA,132226.71,11,11,2013,00,00*66
$GPGGA,132226.81,3529.038213,N,13846.710307,E,1,08,0.9,1213.54,M,28.4,M,,,*4C
$GPZDA,132226.81,11,11,2013,00,00*69
$GPGGA,132226.91,3529.034614,N,13846.708496,E,1,08,0.9,1224.52,M,28.4,M,,,*46
$GPZDA,132226.91,11,11,2013,00,00*68
$GPGGA,132227.01,3529.031010,N,13846.706687,E,1,08,0.9,1235.39,M,28.4,M,,,*48
$GPZDA,132227.01,11,11,2013,00,00*60
$GPGGA,132227.11,3529.027405,N,13846.704878,E,1,08,0.9,1246.14,M,28.4,M,,,*49
$GPZDA,132227.11,11,11,2013,00,00*61
$GPGGA,132227.21,3529.023796,N,13846.703077,E,1,08,0.9,1256.75,M,28.4,M,,,*41
$GPZDA,132227.21,11,11,2013,00,00*62
$GPGGA,132227.31,3529.020187,N,13846.701284,E,1,08,0.9,1267.22,M,28.4,M,,,*49
$GPZDA,132227.31,11,11,2013,00,00*63
$GPGGA,132227.41,3529.016576,N,13846.699496,E,1,08,0.9,1277.56,M,28.4,M,,,*46
$GPZDA,132227.41,11,11,2013,00,00*64
$GPGGA,132227.51,3529.012959,N,13846.697712,E,1,08,0.9,1287.77,M,28.4,M,,,*4F
$GPZDA,132227.51,11,11,2013,00,00*65
$GPGGA,132227.61,3529.009336,N,13846.695930,E,1,08,0.9,1297.85,M,28.4,M,,,*45
$GPZDA,132227.61,11,11,2013,00,00*66
$GPGGA,132227.71,3529.005713,N,13846.694156,E,1,08,0.9,1307.81,M,28.4,M,,,*4E
$GPZDA,132227.71,11,11,2013,00,00*67
$GPGGA,132227.81,3529.002087,N,13846.692382,E,1,08,0.9,1317.65,M,28.4,M,,,*4A
$GPZDA,132227.81,11,11,2013,00,00*68
$GPGGA,132227.91,3528.998458,N,13846.690609,E,1,08,0.9,1327.38,M,28.4,M,,,*49
$GPZDA,132227.91,11,11,2013,00,00*69
$GPGGA,132228.01,3528.994829,N,13846.688833,E,1,08,0.9,1336.98,M,28.4,M,,,*4D
$GPZDA,132228.01,11,11,2013,00,00*6F
$GPGGA,132228.11,3528.991202,N,13846.687057,E,1,08,0.9,1346.46,M,28.4,M,,,*4B
$GPZDA,132228.11,11,11,2013,00,00*6E
$GPGGA,132228.21,3528.987577,N,13846.685280,E,1,08,0.9,1355.81,M,28.4,M,,,*49
$GPZDA,132228.21,11,11,2013,00,00*6D
$GPGGA,132228.31,3528.983958,N,13846.683502,E,1,08,0.9,1365.04,M,28.4,M,,,*48
$GPZDA,132228.31,11,11,2013,00,00*6C
$GPGGA,132228.41,3528.980343,N,13846.681720,E,1,08,0.9,1374.15,M,28.4,M,,,*4C
$GPZDA,132228.41,11,11,2013,00,00*6B
$GPGGA,132228.51,3528.976728,N,13846.679935,E,1,08,0.9,1383.13,M,28.4,M,,,*4E
$GPZDA,132228.51,11,11,2013,00,00*6A
$GPGGA,132228.61,3528.973115,N,13846.678145,E,1,08,0.9,1392.00,M,28.4,M,,,*4C
$GPZDA,132228.61,11,11,2013,00,00*69
$GPGGA,132228.71,3528.969507,N,13846.676350,E,1,08,0.9,1400.76,M,28.4,M,,,*44
$GPZDA,132228.71,11,11,2013,00,00*68
$GPGGA,132228.81,3528.965903,N,13846.674551,E,1,08,0.9,1409.40,M,28.4,M,,,*46
$GPZDA,132228.81,11,11,2013,00,00*67
$GPGGA,132228.91,3528.962307,N,13846.672744,E,1,08,0.9,1417.92,M,28.4,M,,,*4E
$GPZDA,132228.91,11,11,2013,00,00*66
$GPGGA,132229.01,3528.958719,N,13846.670929,E,1,08,0.9,1426.33,M,28.4,M,,,*4A
$GPZDA,132229.01,11,11,2013,00,00*6E
$GPGGA,132229.11,3528.955138,N,13846.669112,E,1,08,0.9,1434.63,M,28.4,M,,,*4D
$GPZDA,132229.11,11,11,2013,00,00*6F
$GPGGA,132229.21,3528.951562,N,13846.667292,E,1,08,0.9,1442.81,M,28.4,M,,,*49
$GPZDA,132229.21,11,11,2013,00,00*6C
$GPGGA,132229.31,3528.947991,N,13846.665471,E,1,08,0.9,1450.87,M,28.4,M,,,*43
$GPZDA,132229.31,11,11,2013,00,00*6D
$GPGGA,132229.41,3528.944430,N,13846.663646,E,1,08,0.9,1458.83,M,28.4,M,,,*4D
$GPZDA,132229.41,11,11,2013,00,00*6A
$GPGGA,132229.51,3528.940878,N,13846.661820,E,1,08,0.9,1466.69,M,28.4,M,,,*4D
$GPZDA,132229.51,11,11,2013,00,00*6B
$GPGGA,132229.61,3528.937334,N,13846.659993,E,1,08,0.9,1474.44,M,28.4,M,,,*43
$GPZDA,132229.61,11,11,2013,00,00*68
$GPGGA,132229.71,3528.933800,N,13846.658168,E,1,08,0.9,1482.07,M,28.4,M,,,*49
$GPZDA,132229.71,11,11,2013,00,00*69
$GPGGA,132229.81,3528.930275,N,13846.656345,E,1,08,0.9,1489.60,M,28.4,M,,,*44
$GPZDA,132229.81,11,11,2013,00,00*66
$GPGGA,132229.91,3528.926760,N,13846.654520,E,1,08,0.9,1497.02,M,28.4,M,,,*4F
$GPZDA,132229.91,11,11,2013,00,00*67
$GPGGA,132230.01,3528.923255,N,13846.652693,E,1,08,0.9,1504.34,M,28.4,M,,,*4B
$GPZDA,132230.01,11,11,2013,00,00*66
$GPGGA,132230.11,3528.919761,N,13846.650868,E,1,08,0.9,1511.54,M,28.4,M,,,*4B
$GPZDA,132230.11,11,11,2013,00,00*67
$GPGGA,132230.21,3528.916277,N,13846.649047,E,1,08,0.9,1518.64,M,28.4,M,,,*42
$GPZDA,132230.21,11,11,2013,00,00*64
$GPGGA,132230.31,3528.912804,N,13846.647232,E,1,08,0.9,1525.64,M,28.4,M,,,*49
$GPZDA,132230.31,11,11,2013,00,00*65
$GPGGA,132230.41,3528.909339,N,13846.645420,E,1,08,0.9,1532.53,M,28.4,M,,,*44
$GPZDA,132230.41,11,11,2013,00,00*62
$GPGGA,132230.51,3528.905881,N,13846.643612,E,1,08,0.9,1539.32,M,28.4,M,,,*48
$GPZDA,132230.51,11,11,2013,00,00*63
$GPGGA,132230.61,3528.902429,N,13846.641812,E,1,08,0.9,1546.00,M,28.4,M,,,*47
$GPZDA,132230.61,11,11,2013,00,00*60
$GPGGA,132230.71,3528.898983,N,13846.640021,E,1,08,0.9,1552.58,M,28.4,M,,,*48
$GPZDA,132230.71,11,11,2013,00,00*61
$GPGGA,132230.81,3528.895541,N,13846.638238,E,1,08,0.9,1559.05,M,28.4,M,,,*4E
$GPZDA,132230.81,11,11,2013,00,00*6E
$GPGGA,132230.91,3528.892105,N,13846.636463,E,1,08,0.9,1565.42,M,28.4,M,,,*46
$GPZDA,132230.91,11,11,2013,00,00*6F
$GPGGA,132231.01,3528.888673,N,13846.634697,E,1,08,0.9,1571.68,M,28.4,M,,,*45
$GPZDA,132231.01,11,11,2013,00,00*67
$GPGGA,132231.11,3528.885244,N,13846.632940,E,1,08,0.9,1577.83,M,28.4,M,,,*49
$GPZDA,132231.11,11,11,2013,00,00*66
$GPGGA,132231.21,3528.881818,N,13846.631191,E,1,08,0.9,1583.88,M,28.4,M,,,*4A
$GPZDA,132231.21,11,11,2013,00,00*65
$GPGGA,132231.31,3528.878394,N,13846.629449,E,1,08,0.9,1589.82,M,28.4,M,,,*4B
$GPZDA,132231.31,11,11,2013,00,00*64
$GPGGA,132231.41,3528.874970,N,13846.627712,E,1,08,0.9,1595.65,M,28.4,M,,,*47
$GPZDA,132231.41,11,11,2013,00,00*63
$GPGGA,132231.51,3528.871548,N,13846.625981,E,1,08,0.9,1601.38,M,28.4,M,,,*44
$GPZDA,132231.51,11,11,2013,00,00*62
$GPGGA,132231.61,3528.868128,N,13846.624255,E,1,08,0.9,1607.00,M,28.4,M,,,*43
$GPZDA,132231.61,11,11,2013,00,00*61
$GPGGA,132231.71,3528.864707,N,13846.622533,E,1,08,0.9,1612.51,M,28.4,M,,,*44
$GPZDA,132231.71,11,11,2013,00,00*60
$GPGGA,132231.81,3528.861284,N,13846.620816,E,1,08,0.9,1617.92,M,28.4,M,,,*42
$GPZDA,132231.81,11,11,2013,00,00*6F
$GPGGA,132231.91,3528.857861,N,13846.619102,E,1,08,0.9,1623.22,M,28.4,M,,,*4D
$GPZDA,132231.91,11,11,2013,00,00*6E
$GPGGA,132232.01,3528.854437,N,13846.617391,E,1,08,0.9,1628.41,M,28.4,M,,,*43
$GPZDA,132232.01,11,11,2013,00,00*64
$GPGGA,132232.11,3528.851010,N,13846.615683,E,1,08,0.9,1633.49,M,28.4,M,,,*40
$GPZDA,132232.11,11,11,2013,00,00*65
$GPGGA,132232.21,3528.847581,N,13846.613976,E,1,08,0.9,1638.46,M,28.4,M,,,*4E
$GPZDA,132232.21,11,11,2013,00,00*66
$GPGGA,132232.31,3528.844150,N,13846.612270,E,1,08,0.9,1643.32,M,28.4,M,,,*47
$GPZDA,132232.31,11,11,2013,00,00*67
$GPGGA,132232.41,3528.840716,N,13846.610565,E,1,08,0.9,1648.08,M,28.4,M,,,*43
$GPZDA,132232.41,11,11,2013,00,00*60
$GPGGA,132232.51,3528.837282,N,13846.608860,E,1,08,0.9,1652.72,M,28.4,M,,,*4D
$GPZDA,132232.51,11,11,2013,00,00*61
$GPGGA,132232.61,3528.833847,N,13846.607154,E,1,08,0.9,1657.26,M,28.4,M,,,*4C
$GPZDA,132232.61,11,11,2013,00,00*62
$GPGGA,132232.71,3528.830411,N,13846.605448,E,1,08,0.9,1661.70,M,28.4,M,,,*4D
$GPZDA,132232.71,11,11,2013,00,00*63
$GPGGA,132232.81,3528.826974,N,13846.603742,E,1,08,0.9,1666.02,M,28.4,M,,,*46
$GPZDA,132232.81,11,11,2013,00,00*6C
$GPGGA,132232.91,3528.823537,N,13846.602034,E,1,08,0.9,1670.24,M,28.4,M,,,*4D
$GPZDA,132232.91,11,11,2013,00,00*6D
$GPGGA,132233.01,3528.820099,N,13846.600324,E,1,08,0.9,1674.34,M,28.4,M,,,*42
$GPZDA,132233.01,11,11,2013,00,00*65
$GPGGA,132233.11,3528.816661,N,13846.598613,E,1,08,0.9,1678.34,M,28.4,M,,,*48
$GPZDA,132233.11,11,11,2013,00,00*64
$GPGGA,132233.21,3528.813223,N,13846.596900,E,1,08,0.9,1682.23,M,28.4,M,,,*4C
$GPZDA,132233.21,11,11,2013,00,00*67
$GPGGA,132233.31,3528.809785,N,13846.595183,E,1,08,0.9,1686.00,M,28.4,M,,,*4A
$GPZDA,132233.31,11,11,2013,00,00*66
$GPGGA,132233.41,3528.806347,N,13846.593461,E,1,08,0.9,1689.67,M,28.4,M,,,*49
$GPZDA,132233.41,11,11,2013,00,00*61
$GPGGA,132233.51,3528.802910,N,13846.591735,E,1,08,0.9,1693.24,M,28.4,M,,,*48
$GPZDA,132233.51,11,11,2013,00,00*60
$GPGGA,132233.61,3528.799475,N,13846.590004,E,1,08,0.9,1696.69,M,28.4,M,,,*40
$GPZDA,132233.61,11,11,2013,00,00*63
$GPGGA,132233.71,3528.796042,N,13846.588270,E,1,08,0.9,1700.05,M,28.4,M,,,*42
$GPZDA,132233.71,11,11,2013,00,00*62
$GPGGA,132233.81,3528.792611,N,13846.586532,E,1,08,0.9,1703.29,M,28.4,M,,,*4B
$GPZDA,132233.81,11,11,2013,00,00*6D
$GPGGA,132233.91,3528.789182,N,13846.584791,E,1,08,0.9,1706.44,M,28.4,M,,,*4A
$GPZDA,132233.91,11,11,2013,00,00*6C
$GPGGA,132234.01,3528.785757,N,13846.583047,E,1,08,0.9,1709.47,M,28.4,M,,,*41
$GPZDA,132234.01,11,11,2013,00,00*62
$GPGGA,132234.11,3528.782335,N,13846.581300,E,1,08,0.9,1712.41,M,28.4,M,,,*49
$GPZDA,132234.11,11,11,2013,00,00*63
$GPGGA,132234.21,3528.778916,N,13846.579551,E,1,08,0.9,1715.24,M,28.4,M,,,*45
$GPZDA,132234.21,11,11,2013,00,00*60
$GPGGA,132234.31,3528.775503,N,13846.577801,E,1,08,0.9,1717.97,M,28.4,M,,,*4D
$GPZDA,132234.31,11,11,2013,00,00*61
$GPGGA,132234.41,3528.772093,N,13846.576048,E,1,08,0.9,1720.60,M,28.4,M,,,*49
$GPZDA,132234.41,11,11,2013,00,00*66
$GPGGA,132234.51,3528.768689,N,13846.574295,E,1,08,0.9,1723.13,M,28.4,M,,,*49
$GPZDA,132234.51,11,11,2013,00,00*67
$GPGGA,132234.61,3528.765289,N,13846.572540,E,1,08,0.9,1725.56,M,28.4,M,,,*4D
$GPZDA,132234.61,11,11,2013,00,00*64
$GPGGA,132234.71,3528.761893,N,13846.570786,E,1,08,0.9,1727.88,M,28.4,M,,,*42
$GPZDA,132234.71,11,11,2013,00,00*65
$GPGGA,132234.81,3528.758501,N,13846.569031,E,1,08,0.9,1730.11,M,28.4,M,,,*44
$GPZDA,132234.81,11,11,2013,00,00*6A
$GPGGA,132234.91,3528.755114,N,13846.567277,E,1,08,0.9,1732.24,M,28.4,M,,,*42
$GPZDA,132234.91,11,11,2013,00,00*6B
$GPGGA,132235.01,3528.751731,N,13846.565524,E,1,08,0.9,1734.27,M,28.4,M,,,*49
$GPZDA,132235.01,11,11,2013,00,00*63
$GPGGA,132235.11,3528.748353,N,13846.563772,E,1,08,0.9,1736.20,M,28.4,M,,,*42
$GPZDA,132235.11,11,11,2013,00,00*62
$GPGGA,132235.21,3528.744980,N,13846.562023,E,1,08,0.9,1738.03,M,28.4,M,,,*44
$GPZDA,132235.21,11,11,2013,00,00*61
$GPGGA,132235.31,3528.741611,N,13846.560274,E,1,08,0.9,1739.76,M,28.4,M,,,*46
$GPZDA,132235.31,11,11,2013,00,00*60
$GPGGA,132235.41,3528.738246,N,13846.558529,E,1,08,0.9,1741.39,M,28.4,M,,,*49
$GPZDA,132235.41,11,11,2013,00,00*67
$GPGGA,132235.51,3528.734886,N,13846.556786,E,1,08,0.9,1742.93,M,28.4,M,,,*48
$GPZDA,132235.51,11,11,2013,00,00*66
$GPGGA,132235.61,3528.731528,N,13846.555046,E,1,08,0.9,1744.36,M,28.4,M,,,*46
$GPZDA,132235.61,11,11,2013,00,00*65
$GPGGA,132235.71,3528.728173,N,13846.553308,E,1,08,0.9,1745.70,M,28.4,M,,,*49
$GPZDA,132235.71,11,11,2013,00,00*64
$GPGGA,132235.81,3528.724821,N,13846.551574,E,1,08,0.9,1746.94,M,28.4,M,,,*42
$GPZDA,132235.81,11,11,2013,00,00*6B
$GPGGA,132235.91,3528.721472,N,13846.549843,E,1,08,0.9,1748.08,M,28.4,M,,,*47
$GPZDA,132235.91,11,11,2013,00,00*6A
$GPGGA,132236.01,3528.718124,N,13846.548115,E,1,08,0.9,1749.12,M,28.4,M,,,*40
$GPZDA,132236.01,11,11,2013,00,00*60
$GPGGA,132236.11,3528.714779,N,13846.546391,E,1,08,0.9,1750.07,M,28.4,M,,,*4F
$GPZDA,132236.11,11,11,2013,00,00*61
$GPGGA,132236.21,3528.711435,N,13846.544669,E,1,08,0.9,1750.92,M,28.4,M,,,*4E
$GPZDA,132236.21,11,11,2013,00,00*62
$GPGGA,132236.31,3528.708094,N,13846.542952,E,1,08,0.9,1751.66,M,28.4,M,,,*43
$GPZDA,132236.31,11,11,2013,00,00*63
$GPGGA,132236.41,3528.704753,N,13846.541238,E,1,08,0.9,1752.32,M,28.4,M,,,*42
$GPZDA,132236.41,11,11,2013,00,00*64
$GPGGA,132236.51,3528.701414,N,13846.539526,E,1,08,0.9,1752.87,M,28.4,M,,,*4F
$GPZDA,132236.51,11,11,2013,00,00*65
$GPGGA,132236.61,3528.698076,N,13846.537818,E,1,08,0.9,1753.32,M,28.4,M,,,*4C
$GPZDA,132236.61,11,11,2013,00,00*66
$GPGGA,132236.71,3528.694738,N,13846.536113,E,1,08,0.9,1753.67,M,28.4,M,,,*4F
$GPZDA,132236.71,11,11,2013,00,00*67
$GPGGA,132236.81,3528.691401,N,13846.534410,E,1,08,0.9,1753.92,M,28.4,M,,,*42
$GPZDA,132236.81,11,11,2013,00,00*68
$GPGGA,132236.91,3528.688063,N,13846.532711,E,1,08,0.9,1754.07,M,28.4,M,,,*44
$GPZDA,132236.91,11,11,2013,00,00*69
$GPGGA,132237.01,3528.684726,N,13846.531015,E,1,08,0.9,1754.12,M,28.4,M,,,*42
$GPZDA,132237.01,11,11,2013,00,00*61
$GPGGA,132237.11,3528.681389,N,13846.529321,E,1,08,0.9,1754.08,M,28.4,M,,,*41
$GPZDA,132237.11,11,11,2013,00,00*60
$GPGGA,132237.21,3528.678054,N,13846.527630,E,1,08,0.9,1753.93,M,28.4,M,,,*49
$GPZDA,132237.21,11,11,2013,00,00*63
$GPGGA,132237.31,3528.674719,N,13846.525941,E,1,08,0.9,1753.68,M,28.4,M,,,*45
$GPZDA,132237.31,11,11,2013,00,00*62
$GPGGA,132237.41,3528.671384,N,13846.524255,E,1,08,0.9,1753.33,M,28.4,M,,,*46
$GPZDA,132237.41,11,11,2013,00,00*65
$GPGGA,132237.51,3528.668051,N,13846.522569,E,1,08,0.9,1752.88,M,28.4,M,,,*4B
$GPZDA,132237.51,11,11,2013,00,00*64
$GPGGA,132237.61,3528.664719,N,13846.520885,E,1,08,0.9,1752.33,M,28.4,M,,,*42
$GPZDA,132237.61,11,11,2013,00,00*67
$GPGGA,132237.71,3528.661387,N,13846.519202,E,1,08,0.9,1751.67,M,28.4,M,,,*48
$GPZDA,132237.71,11,11,2013,00,00*66
$GPGGA,132237.81,3528.658056,N,13846.517519,E,1,08,0.9,1750.92,M,28.4,M,,,*4A
$GPZDA,132237.81,11,11,2013,00,00*69
$GPGGA,132237.91,3528.654725,N,13846.515837,E,1,08,0.9,1750.06,M,28.4,M,,,*4A
$GPZDA,132237.91,11,11,2013,00,00*68
$GPGGA,132238.01,3528.651396,N,13846.514155,E,1,08,0.9,1749.11,M,28.4,M,,,*47
$GPZDA,132238.01,11,11,2013,00,00*6E
$GPGGA,132238.11,3528.648068,N,13846.512473,E,1,08,0.9,1748.05,M,28.4,M,,,*4F
$GPZDA,132238.11,11,11,2013,00,00*6F
$GPGGA,132238.21,3528.644742,N,13846.510791,E,1,08,0.9,1746.89,M,28.4,M,,,*48
$GPZDA,132238.21,11,11,2013,00,00*6C
$GPGGA,132238.31,3528.641418,N,13846.509109,E,1,08,0.9,1745.63,M,28.4,M,,,*48
$GPZDA,132238.31,11,11,2013,00,00*6D
$GPGGA,132238.41,3528.638097,N,13846.507427,E,1,08,0.9,1744.27,M,28.4,M,,,*44
$GPZDA,132238.41,11,11,2013,00,00*6A
$GPGGA,132238.51,3528.634779,N,13846.505745,E,1,08,0.9,1742.81,M,28.4,M,,,*41
$GPZDA,132238.51,11,11,2013,00,00*6B
$GPGGA,132238.61,3528.631463,N,13846.504062,E,1,08,0.9,1741.26,M,28.4,M,,,*42
$GPZDA,132238.61,11,11,2013,00,00*68
$GPGGA,132238.71,3528.628148,N,13846.502380,E,1,08,0.9,1739.61,M,28.4,M,,,*42
$GPZDA,132238.71,11,11,2013,00,00*69
$GPGGA,132238.81,3528.624837,N,13846.500701,E,1,08,0.9,1737.86,M,28.4,M,,,*48
$GPZDA,132238.81,11,11,2013,00,00*66
$GPGGA,132238.91,3528.621529,N,13846.499026,E,1,08,0.9,1736.02,M,28.4,M,,,*40
$GPZDA,132238.91,11,11,2013,00,00*67
$GPGGA,132239.01,3528.618232,N,13846.497362,E,1,08,0.9,1734.06,M,28.4,M,,,*44
$GPZDA,132239.01,11,11,2013,00,00*6F
$GPGGA,132239.11,3528.614933,N,13846.495798,E,1,08,0.9,1731.94,M,28.4,M,,,*4E
$GPZDA,132239.11,11,11,2013,00,00*6E
$GPGGA,132239.21,3528.611632,N,13846.494333,E,1,08,0.9,1729.66,M,28.4,M,,,*46
$GPZDA,132239.21,11,11,2013,00,00*6D
$GPGGA,132239.31,3528.608344,N,13846.492901,E,1,08,0.9,1727.25,M,28.4,M,,,*4F
$GPZDA,132239.31,11,11,2013,00,00*6C
$GPGGA,132239.41,3528.605062,N,13846.491501,E,1,08,0.9,1724.73,M,28.4,M,,,*4D
$GPZDA,132239.41,11,11,2013,00,00*6B
$GPGGA,132239.51,3528.601786,N,13846.490114,E,1,08,0.9,1722.12,M,28.4,M,,,*45
$GPZDA,132239.51,11,11,2013,00,00*6A
$GPGGA,132239.61,3528.598519,N,13846.488743,E,1,08,0.9,1719.43,M,28.4,M,,,*40
$GPZDA,132239.61,11,11,2013,00,00*69
$GPGGA,132239.71,3528.595266,N,13846.487382,E,1,08,0.9,1716.65,M,28.4,M,,,*4E
$GPZDA,132239.71,11,11,2013,00,00*68
$GPGGA,132239.81,3528.592025,N,13846.486019,E,1,08,0.9,1713.80,M,28.4,M,,,*4D
$GPZDA,132239.81,11,11,2013,00,00*67
$GPGGA,132239.91,3528.588792,N,13846.484642,E,1,08,0.9,1710.84,M,28.4,M,,,*41
$GPZDA,132239.91,11,11,2013,00,00*66
$GPGGA,132240.01,3528.585567,N,13846.483252,E,1,08,0.9,1707.77,M,28.4,M,,,*4B
$GPZDA,132240.01,11,11,2013,00,00*61
$GPGGA,132240.11,3528.582343,N,13846.481834,E,1,08,0.9,1704.57,M,28.4,M,,,*44
$GPZDA,132240.11,11,11,2013,00,00*60
$GPGGA,132240.21,3528.579109,N,13846.480387,E,1,08,0.9,1701.24,M,28.4,M,,,*4C
$GPZDA,132240.21,11,11,2013,00,00*63
$GPGGA,132240.31,3528.575902,N,13846.478937,E,1,08,0.9,1697.75,M,28.4,M,,,*4E
$GPZDA,132240.31,11,11,2013,00,00*62
$GPGGA,132240.41,3528.572820,N,13846.477452,E,1,08,0.9,1693.74,M,28.4,M,,,*4B
$GPZDA,132240.41,11,11,2013,00,00*65
$GPGGA,132240.51,3528.569927,N,13846.476185,E,1,08,0.9,1689.38,M,28.4,M,,,*4B
$GPZDA,132240.51,11,11,2013,00,00*64
$GPGGA,132240.61,3528.567177,N,13846.475013,E,1,08,0.9,1685.10,M,28.4,M,,,*40
$GPZDA,132240.61,11,11,2013,00,00*67
$GPGGA,132240.71,3528.564347,N,13846.473832,E,1,08,0.9,1680.97,M,28.4,M,,,*44
$GPZDA,132240.71,11,11,2013,00,00*66
$GPGGA,132240.81,3528.561456,N,13846.472703,E,1,08,0.9,1676.79,M,28.4,M,,,*4C
$GPZDA,132240.81,11,11,2013,00,00*69
$GPGGA,132240.91,3528.558469,N,13846.471743,E,1,08,0.9,1672.24,M,28.4,M,,,*40
$GPZDA,132240.91,11,11,2013,00,00*68
$GPGGA,132241.01,3528.555435,N,13846.470904,E,1,08,0.9,1667.19,M,28.4,M,,,*4A
$GPZDA,132241.01,11,11,2013,00,00*60
$GPGGA,132241.11,3528.552286,N,13846.470140,E,1,08,0.9,1661.80,M,28.4,M,,,*4C
$GPZDA,132241.11,11,11,2013,00,00*61
$GPGGA,132241.21,3528.549035,N,13846.469392,E,1,08,0.9,1656.28,M,28.4,M,,,*4C
$GPZDA,132241.21,11,11,2013,00,00*62
$GPGGA,132241.31,3528.545716,N,13846.468695,E,1,08,0.9,1650.79,M,28.4,M,,,*46
$GPZDA,132241.31,11,11,2013,00,00*63
$GPGGA,132241.41,3528.542406,N,13846.468041,E,1,08,0.9,1645.31,M,28.4,M,,,*43
$GPZDA,132241.41,11,11,2013,00,00*64
$GPGGA,132241.51,3528.539153,N,13846.467411,E,1,08,0.9,1639.80,M,28.4,M,,,*44
$GPZDA,132241.51,11,11,2013,00,00*65
$GPGGA,132241.61,3528.535964,N,13846.466748,E,1,08,0.9,1634.12,M,28.4,M,,,*4F
$GPZDA,132241.61,11,11,2013,00,00*66
$GPGGA,132241.71,3528.532816,N,13846.466052,E,1,08,0.9,1628.26,M,28.4,M,,,*4B
$GPZDA,132241.71,11,11,2013,00,00*67
$GPGGA,132241.81,3528.529720,N,13846.465324,E,1,08,0.9,1622.23,M,28.4,M,,,*4A
$GPZDA,132241.81,11,11,2013,00,00*68
$GPGGA,132241.91,3528.526659,N,13846.464608,E,1,08,0.9,1616.08,M,28.4,M,,,*4F
$GPZDA,132241.91,11,11,2013,00,00*69
$GPGGA,132242.01,3528.523642,N,13846.463908,E,1,08,0.9,1609.82,M,28.4,M,,,*4E
$GPZDA,132242.01,11,11,2013,00,00*63
$GPGGA,132242.11,3528.520673,N,13846.463197,E,1,08,0.9,1603.41,M,28.4,M,,,*45
$GPZDA,132242.11,11,11,2013,00,00*62
$GPGGA,132242.21,3528.517751,N,13846.462449,E,1,08,0.9,1596.83,M,28.4,M,,,*45
$GPZDA,132242.21,11,11,2013,00,00*61
$GPGGA,132242.31,3528.514830,N,13846.461654,E,1,08,0.9,1590.04,M,28.4,M,,,*4B
$GPZDA,132242.31,11,11,2013,00,00*60
$GPGGA,132242.41,3528.511854,N,13846.460870,E,1,08,0.9,1583.03,M,28.4,M,,,*47
$GPZDA,132242.41,11,11,2013,00,00*67
$GPGGA,132242.51,3528.508862,N,13846.460172,E,1,08,0.9,1575.86,M,28.4,M,,,*44
$GPZDA,132242.51,11,11,2013,00,00*66
$GPGGA,132242.61,3528.505882,N,13846.459565,E,1,08,0.9,1568.55,M,28.4,M,,,*4E
$GPZDA,132242.61,11,11,2013,00,00*65
$GPGGA,132242.71,3528.502921,N,13846.459023,E,1,08,0.9,1561.11,M,28.4,M,,,*4E
$GPZDA,132242.71,11,11,2013,00,00*64
$GPGGA,132242.81,3528.499977,N,13846.458501,E,1,08,0.9,1553.49,M,28.4,M,,,*49
$GPZDA,132242.81,11,11,2013,00,00*6B
$GPGGA,132242.91,3528.497051,N,13846.458000,E,1,08,0.9,1545.70,M,28.4,M,,,*42
$GPZDA,132242.91,11,11,2013,00,00*6A
$GPGGA,132243.01,3528.494130,N,13846.457525,E,1,08,0.9,1537.71,M,28.4,M,,,*46
$GPZDA,132243.01,11,11,2013,00,00*62
$GPGGA,132243.11,3528.491216,N,13846.457089,E,1,08,0.9,1529.52,M,28.4,M,,,*48
$GPZDA,132243.11,11,11,2013,00,00*63
$GPGGA,132243.21,3528.488321,N,13846.456674,E,1,08,0.9,1521.14,M,28.4,M,,,*49
$GPZDA,132243.21,11,11,2013,00,00*60
$GPGGA,132243.31,3528.485449,N,13846.456269,E,1,08,0.9,1512.55,M,28.4,M,,,*41
$GPZDA,132243.31,11,11,2013,00,00*61
$GPGGA,132243.41,3528.482594,N,13846.455872,E,1,08,0.9,1503.74,M,28.4,M,,,*40
$GPZDA,132243.41,11,11,2013,00,00*66
$GPGGA,132243.51,3528.479756,N,13846.455497,E,1,08,0.9,1494.73,M,28.4,M,,,*46
$GPZDA,132243.51,11,11,2013,00,00*67
$GPGGA,132243.61,3528.476929,N,13846.455145,E,1,08,0.9,1485.51,M,28.4,M,,,*46
$GPZDA,132243.61,11,11,2013,00,00*64
$GPGGA,132243.71,3528.474126,N,13846.454790,E,1,08,0.9,1476.06,M,28.4,M,,,*43
$GPZDA,132243.71,11,11,2013,00,00*65
$GPGGA,132243.81,3528.471301,N,13846.454405,E,1,08,0.9,1466.37,M,28.4,M,,,*42
$GPZDA,132243.81,11,11,2013,00,00*6A
$GPGGA,132243.91,3528.468434,N,13846.454000,E,1,08,0.9,1456.44,M,28.4,M,,,*4C
$GPZDA,132243.91,11,11,2013,00,00*6B
$GPGGA,132244.01,3528.465539,N,13846.453624,E,1,08,0.9,1446.33,M,28.4,M,,,*45
$GPZDA,132244.01,11,11,2013,00,00*65
$GPGGA,132244.11,3528.462637,N,13846.453279,E,1,08,0.9,1436.02,M,28.4,M,,,*47
$GPZDA,132244.11,11,11,2013,00,00*64
$GPGGA,132244.21,3528.459727,N,13846.452968,E,1,08,0.9,1425.53,M,28.4,M,,,*40
$GPZDA,132244.21,11,11,2013,00,00*67
$GPGGA,132244.31,3528.456809,N,13846.452677,E,1,08,0.9,1414.84,M,28.4,M,,,*44
$GPZDA,132244.31,11,11,2013,00,00*66
$GPGGA,132244.41,3528.453877,N,13846.452407,E,1,08,0.9,1403.96,M,28.4,M,,,*4F
$GPZDA,132244.41,11,11,2013,00,00*61
$GPGGA,132244.51,3528.450923,N,13846.452159,E,1,08,0.9,1392.88,M,28.4,M,,,*43
$GPZDA,132244.51,11,11,2013,00,00*60
$GPGGA,132244.61,3528.447965,N,13846.451944,E,1,08,0.9,1381.60,M,28.4,M,,,*47
$GPZDA,132244.61,11,11,2013,00,00*63
$GPGGA,132244.71,3528.445002,N,13846.451766,E,1,08,0.9,1370.11,M,28.4,M,,,*4A
$GPZDA,132244.71,11,11,2013,00,00*62
$GPGGA,132244.81,3528.442048,N,13846.451632,E,1,08,0.9,1358.42,M,28.4,M,,,*40
$GPZDA,132244.81,11,11,2013,00,00*6D
$GPGGA,132244.91,3528.439107,N,13846.451546,E,1,08,0.9,1346.53,M,28.4,M,,,*48
$GPZDA,132244.91,11,11,2013,00,00*6C
$GPGGA,132245.01,3528.436184,N,13846.451509,E,1,08,0.9,1334.45,M,28.4,M,,,*4D
$GPZDA,132245.01,11,11,2013,00,00*64
$GPGGA,132245.11,3528.433270,N,13846.451518,E,1,08,0.9,1322.19,M,28.4,M,,,*4F
$GPZDA,132245.11,11,11,2013,00,00*65
$GPGGA,132245.21,3528.430367,N,13846.451575,E,1,08,0.9,1309.75,M,28.4,M,,,*40
$GPZDA,132245.21,11,11,2013,00,00*66
$GPGGA,132245.31,3528.427468,N,13846.451677,E,1,08,0.9,1297.15,M,28.4,M,,,*4E
$GPZDA,132245.31,11,11,2013,00,00*67
$GPGGA,132245.41,3528.424585,N,13846.451824,E,1,08,0.9,1284.36,M,28.4,M,,,*43
$GPZDA,132245.41,11,11,2013,00,00*60
$GPGGA,132245.51,3528.421720,N,13846.452020,E,1,08,0.9,1271.40,M,28.4,M,,,*4E
$GPZDA,132245.51,11,11,2013,00,00*61
$GPGGA,132245.61,3528.418863,N,13846.452268,E,1,08,0.9,1258.28,M,28.4,M,,,*44
$GPZDA,132245.61,11,11,2013,00,00*62
$GPGGA,132245.71,3528.416012,N,13846.452570,E,1,08,0.9,1244.99,M,28.4,M,,,*4C
$GPZDA,132245.71,11,11,2013,00,00*63
$GPGGA,132245.81,3528.413149,N,13846.452919,E,1,08,0.9,1231.54,M,28.4,M,,,*49
$GPZDA,132245.81,11,11,2013,00,00*6C
$GPGGA,132245.91,3528.410286,N,13846.453300,E,1,08,0.9,1217.90,M,28.4,M,,,*44
$GPZDA,132245.91,11,11,2013,00,00*6D
$GPGGA,132246.01,3528.407432,N,13846.453713,E,1,08,0.9,1204.06,M,28.4,M,,,*4A
$GPZDA,132246.01,11,11,2013,00,00*67
$GPGGA,132246.11,3528.404595,N,13846.454175,E,1,08,0.9,1190.06,M,28.4,M,,,*4B
$GPZDA,132246.11,11,11,2013,00,00*66
$GPGGA,132246.21,3528.401773,N,13846.454691,E,1,08,0.9,1175.90,M,28.4,M,,,*4E
$GPZDA,132246.21,11,11,2013,00,00*65
$GPGGA,132246.31,3528.398961,N,13846.455266,E,1,08,0.9,1161.58,M,28.4,M,,,*49
$GPZDA,132246.31,11,11,2013,00,00*64
$GPGGA,132246.41,3528.396144,N,13846.455905,E,1,08,0.9,1147.12,M,28.4,M,,,*4B
$GPZDA,132246.41,11,11,2013,00,00*63
$GPGGA,132246.51,3528.393313,N,13846.456605,E,1,08,0.9,1132.51,M,28.4,M,,,*46
$GPZDA,132246.51,11,11,2013,00,00*62
$GPGGA,132246.61,3528.390466,N,13846.457346,E,1,08,0.9,1117.71,M,28.4,M,,,*45
$GPZDA,132246.61,11,11,2013,00,00*61
$GPGGA,132246.71,3528.387624,N,13846.458128,E,1,08,0.9,1102.74,M,28.4,M,,,*42
$GPZDA,132246.71,11,11,2013,00,00*60
$GPGGA,132246.81,3528.384792,N,13846.458951,E,1,08,0.9,1087.58,M,28.4,M,,,*46
$GPZDA,132246.81,11,11,2013,00,00*6F
$GPGGA,132246.91,3528.381960,N,13846.459832,E,1,08,0.9,1072.26,M,28.4,M,,,*47
$GPZDA,132246.91,11,11,2013,00,00*6E
$GPGGA,132247.01,3528.379114,N,13846.460757,E,1,08,0.9,1056.77,M,28.4,M,,,*47
$GPZDA,132247.01,11,11,2013,00,00*66
$GPGGA,132247.11,3528.376260,N,13846.461720,E,1,08,0.9,1041.09,M,28.4,M,,,*47
$GPZDA,132247.11,11,11,2013,00,00*67
$GPGGA,132247.21,3528.373414,N,13846.462725,E,1,08,0.9,1025.23,M,28.4,M,,,*48
$GPZDA,132247.21,11,11,2013,00,00*64
$GPGGA,132247.31,3528.370578,N,13846.463774,E,1,08,0.9,1009.20,M,28.4,M,,,*49
$GPZDA,132247.31,11,11,2013,00,00*65
$GPGGA,132247.41,3528.367755,N,13846.464871,E,1,08,0.9,993.01,M,28.4,M,,,*70
$GPZDA,132247.41,11,11,2013,00,00*62
$GPGGA,132247.51,3528.364941,N,13846.466021,E,1,08,0.9,976.65,M,28.4,M,,,*7F
$GPZDA,132247.51,11,11,2013,00,00*63
$GPGGA,132247.61,3528.362133,N,13846.467226,E,1,08,0.9,960.14,M,28.4,M,,,*72
$GPZDA,132247.61,11,11,2013,00,00*60
$GPGGA,132247.71,3528.359320,N,13846.468495,E,1,08,0.9,943.50,M,28.4,M,,,*7B
$GPZDA,132247.71,11,11,2013,00,00*61
$GPGGA,132247.81,3528.356498,N,13846.469827,E,1,08,0.9,926.72,M,28.4,M,,,*78
$GPZDA,132247.81,11,11,2013,00,00*6E
$GPGGA,132247.91,3528.353664,N,13846.471217,E,1,08,0.9,909.78,M,28.4,M,,,*7A
$GPZDA,132247.91,11,11,2013,00,00*6F
$GPGGA,132248.01,3528.350817,N,13846.472666,E,1,08,0.9,892.69,M,28.4,M,,,*77
$GPZDA,132248.01,11,11,2013,00,00*69
$GPGGA,132248.11,3528.347958,N,13846.474174,E,1,08,0.9,875.45,M,28.4,M,,,*7F
$GPZDA,132248.11,11,11,2013,00,00*68
$GPGGA,132248.21,3528.345088,N,13846.475744,E,1,08,0.9,858.06,M,28.4,M,,,*76
$GPZDA,132248.21,11,11,2013,00,00*6B
$GPGGA,132248.31,3528.342212,N,13846.477371,E,1,08,0.9,840.51,M,28.4,M,,,*7A
$GPZDA,132248.31,11,11,2013,00,00*6A
$GPGGA,132248.41,3528.339330,N,13846.479055,E,1,08,0.9,822.79,M,28.4,M,,,*75
$GPZDA,132248.41,11,11,2013,00,00*6D
$GPGGA,132248.51,3528.336444,N,13846.480798,E,1,08,0.9,804.92,M,28.4,M,,,*7E
$GPZDA,132248.51,11,11,2013,00,00*6C
$GPGGA,132248.61,3528.333552,N,13846.482598,E,1,08,0.9,786.89,M,28.4,M,,,*71
$GPZDA,132248.61,11,11,2013,00,00*6F
$GPGGA,132248.71,3528.330664,N,13846.484460,E,1,08,0.9,768.71,M,28.4,M,,,*72
$GPZDA,132248.71,11,11,2013,00,00*6E
$GPGGA,132248.81,3528.327790,N,13846.486370,E,1,08,0.9,750.35,M,28.4,M,,,*7E
$GPZDA,132248.81,11,11,2013,00,00*61
$GPGGA,132248.91,3528.324923,N,13846.488322,E,1,08,0.9,731.81,M,28.4,M,,,*7B
$GPZDA,132248.91,11,11,2013,00,00*60
$GPGGA,132249.01,3528.322046,N,13846.490310,E,1,08,0.9,713.07,M,28.4,M,,,*79
$GPZDA,132249.01,11,11,2013,00,00*68
$GPGGA,132249.11,3528.319153,N,13846.492332,E,1,08,0.9,694.13,M,28.4,M,,,*7C
$GPZDA,132249.11,11,11,2013,00,00*69
$GPGGA,132249.21,3528.316241,N,13846.494397,E,1,08,0.9,675.03,M,28.4,M,,,*77
$GPZDA,132249.21,11,11,2013,00,00*6A
$GPGGA,132249.31,3528.313307,N,13846.496509,E,1,08,0.9,655.77,M,28.4,M,,,*72
$GPZDA,132249.31,11,11,2013,00,00*6B
$GPGGA,132249.41,3528.310351,N,13846.498670,E,1,08,0.9,636.35,M,28.4,M,,,*75
$GPZDA,132249.41,11,11,2013,00,00*6C
$GPGGA,132249.51,3528.307376,N,13846.500877,E,1,08,0.9,616.77,M,28.4,M,,,*7A
$GPZDA,132249.51,11,11,2013,00,00*6D
$GPGGA,132249.61,3528.304378,N,13846.503135,E,1,08,0.9,597.05,M,28.4,M,,,*77
$GPZDA,132249.61,11,11,2013,00,00*6E
$GPGGA,132249.71,3528.301358,N,13846.505447,E,1,08,0.9,577.18,M,28.4,M,,,*75
$GPZDA,132249.71,11,11,2013,00,00*6F
$GPGGA,132249.81,3528.298321,N,13846.507818,E,1,08,0.9,557.17,M,28.4,M,,,*7C
$GPZDA,132249.81,11,11,2013,00,00*60
$GPGGA,132249.91,3528.295267,N,13846.510250,E,1,08,0.9,537.02,M,28.4,M,,,*71
$GPZDA,132249.91,11,11,2013,00,00*61
$GPGGA,132250.01,3528.292210,N,13846.512740,E,1,08,0.9,516.71,M,28.4,M,,,*76
$GPZDA,132250.01,11,11,2013,00,00*60
$GPGGA,132250.11,3528.289157,N,13846.515280,E,1,08,0.9,496.24,M,28.4,M,,,*7A
$GPZDA,132250.11,11,11,2013,00,00*61
$GPGGA,132250.21,3528.286108,N,13846.517869,E,1,08,0.9,475.60,M,28.4,M,,,*7E
$GPZDA,132250.21,11,11,2013,00,00*62
$GPGGA,132250.31,3528.283058,N,13846.520496,E,1,08,0.9,454.77,M,28.4,M,,,*73
$GPZDA,132250.31,11,11,2013,00,00*63
$GPGGA,132250.41,3528.280007,N,13846.523165,E,1,08,0.9,433.77,M,28.4,M,,,*76
$GPZDA,132250.41,11,11,2013,00,00*64
$GPGGA,132250.51,3528.276952,N,13846.525871,E,1,08,0.9,412.59,M,28.4,M,,,*72
$GPZDA,132250.51,11,11,2013,00,00*65
$GPGGA,132250.61,3528.273896,N,13846.528627,E,1,08,0.9,391.24,M,28.4,M,,,*7B
$GPZDA,132250.61,11,11,2013,00,00*66
$GPGGA,132250.71,3528.270836,N,13846.531435,E,1,08,0.9,369.73,M,28.4,M,,,*7F
$GPZDA,132250.71,11,11,2013,00,00*67
$GPGGA,132250.81,3528.267767,N,13846.534297,E,1,08,0.9,348.06,M,28.4,M,,,*77
$GPZDA,132250.81,11,11,2013,00,00*68
$GPGGA,132250.91,3528.264685,N,13846.537211,E,1,08,0.9,326.24,M,28.4,M,,,*7D
$GPZDA,132250.91,11,11,2013,00,00*69
$GPGGA,132251.01,3528.261584,N,13846.540175,E,1,08,0.9,304.26,M,28.4,M,,,*71
$GPZDA,132251.01,11,11,2013,00,00*61
$GPGGA,132251.11,3528.258466,N,13846.543187,E,1,08,0.9,282.13,M,28.4,M,,,*70
$GPZDA,132251.11,11,11,2013,00,00*60
$GPGGA,132251.21,3528.255325,N,13846.546245,E,1,08,0.9,259.84,M,28.4,M,,,*7E
$GPZDA,132251.21,11,11,2013,00,00*63
$GPGGA,132251.31,3528.252161,N,13846.549350,E,1,08,0.9,237.40,M,28.4,M,,,*70
$GPZDA,132251.31,11,11,2013,00,00*62
$GPGGA,132251.41,3528.248963,N,13846.552486,E,1,08,0.9,214.80,M,28.4,M,,,*7D
$GPZDA,132251.41,11,11,2013,00,00*65
$GPGGA,132251.51,3528.245733,N,13846.555646,E,1,08,0.9,192.03,M,28.4,M,,,*75
$GPZDA,132251.51,11,11,2013,00,00*64
$GPGGA,132251.61,3528.242493,N,13846.558824,E,1,08,0.9,169.06,M,28.4,M,,,*7E
$GPZDA,132251.61,11,11,2013,00,00*67
$GPGGA,132251.71,3528.239252,N,13846.562040,E,1,08,0.9,145.94,M,28.4,M,,,*7E
$GPZDA,132251.71,11,11,2013,00,00*66
$GPGGA,132251.81,3528.236009,N,13846.565294,E,1,08,0.9,122.66,M,28.4,M,,,*72
$GPZDA,132251.81,11,11,2013,00,00*69
$GPGGA,132251.91,3528.232760,N,13846.568589,E,1,08,0.9,99.24,M,28.4,M,,,*4E
$GPZDA,132251.91,11,11,2013,00,00*68
$GPGGA,132252.01,3528.229501,N,13846.571925,E,1,08,0.9,75.68,M,28.4,M,,,*43
$GPZDA,132252.01,11,11,2013,00,00*62
$GPGGA,132252.11,3528.226226,N,13846.575296,E,1,08,0.9,51.98,M,28.4,M,,,*41
$GPZDA,132252.11,11,11,2013,00,00*63
$GPGGA,132252.21,3528.222932,N,13846.578700,E,1,08,0.9,28.13,M,28.4,M,,,*42
$GPZDA,132252.21,11,11,2013,00,00*60
$GPGGA,132252.31,3528.219618,N,13846.582136,E,1,08,0.9,4.15,M,28.4,M,,,*72
$GPZDA,132252.31,11,11,2013,00,00*61
$GPGGA,132252.41,3528.216284,N,13846.585607,E,1,08,0.9,-19.98,M,28.4,M,,,*6D
$GPZDA,132252.41,11,11,2013,00,00*66
$GPGGA,132252.51,3528.212931,N,13846.589115,E,1,08,0.9,-44.26,M,28.4,M,,,*68
$GPZDA,132252.51,11,11,2013,00,00*67
$GPGGA,132252.61,3528.209559,N,13846.592659,E,1,08,0.9,-68.69,M,28.4,M,,,*63
$GPZDA,132252.61,11,11,2013,00,00*64
$GPGGA,132252.71,3528.206171,N,13846.596248,E,1,08,0.9,-93.28,M,28.4,M,,,*62
$GPZDA,132252.71,11,11,2013,00,00*65
$GPGGA,132252.81,3528.202769,N,13846.599885,E,1,08,0.9,-118.02,M,28.4,M,,,*58
$GPZDA,132252.81,11,11,2013,00,00*6A
$GPGGA,132252.91,3528.199355,N,13846.603572,E,1,08,0.9,-142.92,M,28.4,M,,,*50
$GPZDA,132252.91,11,11,2013,00,00*6B
$GPGGA,132253.01,3528.195934,N,13846.607312,E,1,08,0.9,-167.98,M,28.4,M,,,*50
$GPZDA,132253.01,11,11,2013,00,00*63
$GPGGA,132253.11,3528.192511,N,13846.611099,E,1,08,0.9,-193.23,M,28.4,M,,,*51
$GPZDA,132253.11,11,11,2013,00,00*62
$GPGGA,132253.21,3528.189081,N,13846.614923,E,1,08,0.9,-218.66,M,28.4,M,,,*58
$GPZDA,132253.21,11,11,2013,00,00*61
$GPGGA,132253.31,3528.185641,N,13846.618781,E,1,08,0.9,-244.29,M,28.4,M,,,*57
$GPZDA,132253.31,11,11,2013,00,00*60
$GPGGA,132253.41,3528.182177,N,13846.622673,E,1,08,0.9,-270.10,M,28.4,M,,,*5D
$GPZDA,132253.41,11,11,2013,00,00*67
$GPGGA,132253.51,3528.178693,N,13846.626615,E,1,08,0.9,-296.08,M,28.4,M,,,*51
$GPZDA,132253.51,11,11,2013,00,00*66
$GPGGA,132253.61,3528.175194,N,13846.630607,E,1,08,0.9,-322.24,M,28.4,M,,,*5B
$GPZDA,132253.61,11,11,2013,00,00*65
$GPGGA,132253.71,3528.171684,N,13846.634641,E,1,08,0.9,-348.58,M,28.4,M,,,*59
$GPZDA,132253.71,11,11,2013,00,00*64
$GPGGA,132253.81,3528.168158,N,13846.638707,E,1,08,0.9,-375.10,M,28.4,M,,,*55
$GPZDA,132253.81,11,11,2013,00,00*6B
$GPGGA,132253.91,3528.164615,N,13846.642803,E,1,08,0.9,-401.80,M,28.4,M,,,*5D
$GPZDA,132253.91,11,11,2013,00,00*6A
$GPGGA,132254.01,3528.161046,N,13846.646925,E,1,08,0.9,-428.67,M,28.4,M,,,*55
$GPZDA,132254.01,11,11,2013,00,00*64
$GPGGA,132254.11,3528.157450,N,13846.651076,E,1,08,0.9,-455.71,M,28.4,M,,,*56
$GPZDA,132254.11,11,11,2013,00,00*65
$GPGGA,132254.21,3528.153823,N,13846.655264,E,1,08,0.9,-482.92,M,28.4,M,,,*5B
$GPZDA,132254.21,11,11,2013,00,00*66
$GPGGA,132254.31,3528.150176,N,13846.659498,E,1,08,0.9,-510.28,M,28.4,M,,,*52
$GPZDA,132254.31,11,11,2013,00,00*67
$GPGGA,132254.41,3528.146512,N,13846.663780,E,1,08,0.9,-537.80,M,28.4,M,,,*50
$GPZDA,132254.41,11,11,2013,00,00*60
$GPGGA,132254.51,3528.142830,N,13846.668096,E,1,08,0.9,-565.50,M,28.4,M,,,*59
$GPZDA,132254.51,11,11,2013,00,00*61
$GPGGA,132254.61,3528.139132,N,13846.672446,E,1,08,0.9,-593.36,M,28.4,M,,,*56
$GPZDA,132254.61,11,11,2013,00,00*62
$GPGGA,132254.71,3528.135417,N,13846.676826,E,1,08,0.9,-621.41,M,28.4,M,,,*5D
$GPZDA,132254.71,11,11,2013,00,00*63
$GPGGA,132254.81,3528.131678,N,13846.681233,E,1,08,0.9,-649.62,M,28.4,M,,,*54
$GPZDA,132254.81,11,11,2013,00,00*6C
$GPGGA,132254.91,3528.127910,N,13846.685669,E,1,08,0.9,-678.02,M,28.4,M,,,*58
$GPZDA,132254.91,11,11,2013,00,00*6D
$GPGGA,132255.01,3528.124112,N,13846.690129,E,1,08,0.9,-706.60,M,28.4,M,,,*52
$GPZDA,132255.01,11,11,2013,00,00*65
$GPGGA,132255.11,3528.120274,N,13846.694611,E,1,08,0.9,-735.35,M,28.4,M,,,*5C
$GPZDA,132255.11,11,11,2013,00,00*64
$GPGGA,132255.21,3528.116395,N,13846.699115,E,1,08,0.9,-764.27,M,28.4,M,,,*5D
$GPZDA,132255.21,11,11,2013,00,00*67
$GPGGA,132255.31,3528.112478,N,13846.703646,E,1,08,0.9,-793.37,M,28.4,M,,,*56
$GPZDA,132255.31,11,11,2013,00,00*66
$GPGGA,132255.41,3528.108523,N,13846.708203,E,1,08,0.9,-822.63,M,28.4,M,,,*5F
$GPZDA,132255.41,11,11,2013,00,00*61
$GPGGA,132255.51,3528.104531,N,13846.712786,E,1,08,0.9,-852.05,M,28.4,M,,,*55
$GPZDA,132255.51,11,11,2013,00,00*60
$GPGGA,132255.61,3528.100506,N,13846.717393,E,1,08,0.9,-881.63,M,28.4,M,,,*5D
$GPZDA,132255.61,11,11,2013,00,00*63
$GPGGA,132255.71,3528.096448,N,13846.722024,E,1,08,0.9,-911.38,M,28.4,M,,,*56
$GPZDA,132255.71,11,11,2013,00,00*62
$GPGGA,132255.81,3528.092355,N,13846.726678,E,1,08,0.9,-941.28,M,28.4,M,,,*59
$GPZDA,132255.81,11,11,2013,00,00*6D
$GPGGA,132255.91,3528.088226,N,13846.731357,E,1,08,0.9,-971.35,M,28.4,M,,,*57
$GPZDA,132255.91,11,11,2013,00,00*6C
$GPGGA,132256.01,3528.084059,N,13846.736058,E,1,08,0.9,-1001.57,M,28.4,M,,,*6B
$GPZDA,132256.01,11,11,2013,00,00*66
$GPGGA,132256.11,3528.079854,N,13846.740775,E,1,08,0.9,-1031.96,M,28.4,M,,,*6A
$GPZDA,132256.11,11,11,2013,00,00*67
$GPGGA,132256.21,3528.075614,N,13846.745504,E,1,08,0.9,-1062.53,M,28.4,M,,,*61
$GPZDA,132256.21,11,11,2013,00,00*64
$GPGGA,132256.31,3528.071346,N,13846.750241,E,1,08,0.9,-1093.30,M,28.4,M,,,*6F
$GPZDA,132256.31,11,11,2013,00,00*65
$GPGGA,132256.41,3528.067060,N,13846.754993,E,1,08,0.9,-1124.25,M,28.4,M,,,*61
$GPZDA,132256.41,11,11,2013,00,00*62
$GPGGA,132256.51,3528.062761,N,13846.759765,E,1,08,0.9,-1155.41,M,28.4,M,,,*6D
$GPZDA,132256.51,11,11,2013,00,00*63
$GPGGA,132256.61,3528.058448,N,13846.764565,E,1,08,0.9,-1186.76,M,28.4,M,,,*69
$GPZDA,132256.61,11,11,2013,00,00*60
$GPGGA,132256.71,3528.054120,N,13846.769399,E,1,08,0.9,-1218.29,M,28.4,M,,,*69
$GPZDA,132256.71,11,11,2013,00,00*61
$GPGGA,132256.81,3528.049776,N,13846.774268,E,1,08,0.9,-1249.99,M,28.4,M,,,*63
$GPZDA,132256.81,11,11,2013,00,00*6E
$GPGGA,132256.91,3528.045416,N,13846.779180,E,1,08,0.9,-1281.87,M,28.4,M,,,*68
$GPZDA,132256.91,11,11,2013,00,00*6F
$GPGGA,132257.01,3528.041038,N,13846.784134,E,1,08,0.9,-1313.91,M,28.4,M,,,*6C
$GPZDA,132257.01,11,11,2013,00,00*67
$GPGGA,132257.11,3528.036633,N,13846.789131,E,1,08,0.9,-1346.10,M,28.4,M,,,*61
$GPZDA,132257.11,11,11,2013,00,00*66
$GPGGA,132257.21,3528.032198,N,13846.794164,E,1,08,0.9,-1378.46,M,28.4,M,,,*62
$GPZDA,132257.21,11,11,2013,00,00*65
$GPGGA,132257.31,3528.027734,N,13846.799233,E,1,08,0.9,-1410.96,M,28.4,M,,,*6F
$GPZDA,132257.31,11,11,2013,00,00*64
$GPGGA,132257.41,3528.023235,N,13846.804327,E,1,08,0.9,-1443.62,M,28.4,M,,,*6A
$GPZDA,132257.41,11,11,2013,00,00*63
$GPGGA,132257.51,3528.018700,N,13846.809447,E,1,08,0.9,-1476.44,M,28.4,M,,,*6E
$GPZDA,132257.51,11,11,2013,00,00*62
$GPGGA,132257.61,3528.014136,N,13846.814592,E,1,08,0.9,-1509.43,M,28.4,M,,,*69
$GPZDA,132257.61,11,11,2013,00,00*61
$GPGGA,132257.71,3528.009545,N,13846.819759,E,1,08,0.9,-1542.59,M,28.4,M,,,*68
$GPZDA,132257.71,11,11,2013,00,00*60
$GPGGA,132257.81,3528.004929,N,13846.824950,E,1,08,0.9,-1575.91,M,28.4,M,,,*65
$GPZDA,132257.81,11,11,2013,00,00*6F
$GPGGA,132257.91,3528.000286,N,13846.830162,E,1,08,0.9,-1609.40,M,28.4,M,,,*66
$GPZDA,132257.91,11,11,2013,00,00*6E
$GPGGA,132258.01,3527.995617,N,13846.835397,E,1,08,0.9,-1643.06,M,28.4,M,,,*67
$GPZDA,132258.01,11,11,2013,00,00*68
$GPGGA,132258.11,3527.990922,N,13846.840655,E,1,08,0.9,-1676.87,M,28.4,M,,,*6C
$GPZDA,132258.11,11,11,2013,00,00*69
$GPGGA,132258.21,3527.986197,N,13846.845932,E,1,08,0.9,-1710.84,M,28.4,M,,,*67
$GPZDA,132258.21,11,11,2013,00,00*6A
$GPGGA,132258.31,3527.981441,N,13846.851228,E,1,08,0.9,-1744.98,M,28.4,M,,,*66
$GPZDA,132258.31,11,11,2013,00,00*6B
$GPGGA,132258.41,3527.976654,N,13846.856543,E,1,08,0.9,-1779.28,M,28.4,M,,,*67
$GPZDA,132258.41,11,11,2013,00,00*6C
$GPGGA,132258.51,3527.971840,N,13846.861880,E,1,08,0.9,-1813.75,M,28.4,M,,,*67
$GPZDA,132258.51,11,11,2013,00,00*6D
$GPGGA,132258.61,3527.966998,N,13846.867239,E,1,08,0.9,-1848.39,M,28.4,M,,,*6E
$GPZDA,132258.61,11,11,2013,00,00*6E
$GPGGA,132258.71,3527.962131,N,13846.872619,E,1,08,0.9,-1883.20,M,28.4,M,,,*6D
$GPZDA,132258.71,11,11,2013,00,00*6F
$GPGGA,132258.81,3527.957233,N,13846.878015,E,1,08,0.9,-1918.19,M,28.4,M,,,*6C
$GPZDA,132258.81,11,11,2013,00,00*60
$GPGGA,132258.91,3527.952305,N,13846.883429,E,1,08,0.9,-1953.35,M,28.4,M,,,*62
$GPZDA,132258.91,11,11,2013,00,00*61
$GPGGA,132259.01,3527.947350,N,13846.888867,E,1,08,0.9,-1988.68,M,28.4,M,,,*6D
$GPZDA,132259.01,11,11,2013,00,00*69
$GPGGA,132259.11,3527.942367,N,13846.894329,E,1,08,0.9,-2024.20,M,28.4,M,,,*61
$GPZDA,132259.11,11,11,2013,00,00*68
$GPGGA,132259.21,3527.937352,N,13846.899821,E,1,08,0.9,-2059.88,M,28.4,M,,,*60
$GPZDA,132259.21,11,11,2013,00,00*6B
$GPGGA,132259.31,3527.932309,N,13846.905347,E,1,08,0.9,-2095.73,M,28.4,M,,,*61
$GPZDA,132259.31,11,11,2013,00,00*6A
$GPGGA,132259.41,3527.927239,N,13846.910910,E,1,08,0.9,-2131.74,M,28.4,M,,,*64
$GPZDA,132259.41,11,11,2013,00,00*6D
$GPGGA,132259.51,3527.922144,N,13846.916513,E,1,08,0.9,-2167.91,M,28.4,M,,,*68
$GPZDA,132259.51,11,11,2013,00,00*6C
$GPGGA,132259.61,3527.917026,N,13846.922159,E,1,08,0.9,-2204.25,M,28.4,M,,,*6C
$GPZDA,132259.61,11,11,2013,00,00*6F
$GPGGA,132259.71,3527.911883,N,13846.927847,E,1,08,0.9,-2240.75,M,28.4,M,,,*6A
$GPZDA,132259.71,11,11,2013,00,00*6E
$GPGGA,132259.81,3527.906717,N,13846.933582,E,1,08,0.9,-2277.41,M,28.4,M,,,*63
$GPZDA,132259.81,11,11,2013,00,00*61
$GPGGA,132259.91,3527.901532,N,13846.939366,E,1,08,0.9,-2314.23,M,28.4,M,,,*66
$GPZDA,132259.91,11,11,2013,00,00*60
$GPGGA,132260.01,3527.896334,N,13846.945204,E,1,08,0.9,-2351.20,M,28.4,M,,,*66
$GPZDA,132260.01,11,11,2013,00,00*63
$GPGGA,132260.11,3527.891124,N,13846.951088,E,1,08,0.9,-2388.36,M,28.4,M,,,*63
$GPZDA,132260.11,11,11,2013,00,00*62
$GPGGA,132260.21,3527.885900,N,13846.957018,E,1,08,0.9,-2425.71,M,28.4,M,,,*67
$GPZDA,132260.21,11,11,2013,00,00*61
$GPGGA,132260.31,3527.880661,N,13846.962984,E,1,08,0.9,-2463.25,M,28.4,M,,,*62
$GPZDA,132260.31,11,11,2013,00,00*60
$GPGGA,132260.41,3527.875406,N,13846.968984,E,1,08,0.9,-2500.98,M,28.4,M,,,*64
$GPZDA,132260.41,11,11,2013,00,00*67
$GPGGA,132260.51,3527.870128,N,13846.975016,E,1,08,0.9,-2538.89,M,28.4,M,,,*6C
$GPZDA,132260.51,11,11,2013,00,00*66
$GPGGA,132260.61,3527.864834,N,13846.981080,E,1,08,0.9,-2576.99,M,28.4,M,,,*61
$GPZDA,132260.61,11,11,2013,00,00*65
$GPGGA,132260.71,3527.859522,N,13846.987173,E,1,08,0.9,-2615.28,M,28.4,M,,,*63
$GPZDA,132260.71,11,11,2013,00,00*64
$GPGGA,132260.81,3527.854201,N,13846.993298,E,1,08,0.9,-2653.76,M,28.4,M,,,*6D
$GPZDA,132260.81,11,11,2013,00,00*6B
$GPGGA,132260.91,3527.848868,N,13846.999458,E,1,08,0.9,-2692.43,M,28.4,M,,,*6F
$GPZDA,132260.91,11,11,2013,00,00*6A
$GPGGA,132261.01,3527.843525,N,13847.005649,E,1,08,0.9,-2731.29,M,28.4,M,,,*63
$GPZDA,132261.01,11,11,2013,00,00*62
$GPGGA,132261.11,3527.838171,N,13847.011867,E,1,08,0.9,-2770.35,M,28.4,M,,,*64
$GPZDA,132261.11,11,11,2013,00,00*63
$GPGGA,132261.21,3527.832809,N,13847.018111,E,1,08,0.9,-2809.60,M,28.4,M,,,*6B
$GPZDA,132261.21,11,11,2013,00,00*60
$GPGGA,132261.31,3527.827431,N,13847.024377,E,1,08,0.9,-2849.03,M,28.4,M,,,*65
$GPZDA,132261.31,11,11,2013,00,00*61
$GPGGA,132261.41,3527.822034,N,13847.030662,E,1,08,0.9,-2888.66,M,28.4,M,,,*6C
$GPZDA,132261.41,11,11,2013,00,00*66
$GPGGA,132261.51,3527.816620,N,13847.036965,E,1,08,0.9,-2928.47,M,28.4,M,,,*6F
$GPZDA,132261.51,11,11,2013,00,00*67
$GPGGA,132261.61,3527.811192,N,13847.043289,E,1,08,0.9,-2968.48,M,28.4,M,,,*65
$GPZDA,132261.61,11,11,2013,00,00*64
$GPGGA,132261.71,3527.805752,N,13847.049631,E,1,08,0.9,-3008.69,M,28.4,M,,,*6B
$GPZDA,132261.71,11,11,2013,00,00*65
$GPGGA,132261.81,3527.800303,N,13847.056001,E,1,08,0.9,-3049.08,M,28.4,M,,,*68
$GPZDA,132261.81,11,11,2013,00,00*6A
$GPGGA,132261.91,3527.794842,N,13847.062407,E,1,08,0.9,-3089.64,M,28.4,M,,,*66
$GPZDA,132261.91,11,11,2013,00,00*6B
$GPGGA,132262.01,3527.789368,N,13847.068847,E,1,08,0.9,-3130.39,M,28.4,M,,,*6A
$GPZDA,132262.01,11,11,2013,00,00*61
$GPGGA,132262.11,3527.783880,N,13847.075324,E,1,08,0.9,-3171.32,M,28.4,M,,,*60
$GPZDA,132262.11,11,11,2013,00,00*60
$GPGGA,132262.21,3527.778383,N,13847.081832,E,1,08,0.9,-3212.44,M,28.4,M,,,*6F
$GPZDA,132262.21,11,11,2013,00,00*63
$GPGGA,132262.31,3527.772879,N,13847.088373,E,1,08,0.9,-3253.75,M,28.4,M,,,*6A
$GPZDA,132262.31,11,11,2013,00,00*62
$GPGGA,132262.41,3527.767370,N,13847.094938,E,1,08,0.9,-3295.24,M,28.4,M,,,*6D
$GPZDA,132262.41,11,11,2013,00,00*65
$GPGGA,132262.51,3527.761859,N,13847.101526,E,1,08,0.9,-3336.93,M,28.4,M,,,*60
$GPZDA,132262.51,11,11,2013,00,00*64
$GPGGA,132262.61,3527.756344,N,13847.108141,E,1,08,0.9,-3378.79,M,28.4,M,,,*62
$GPZDA,132262.61,11,11,2013,00,00*67
$GPGGA,132262.71,3527.750826,N,13847.114779,E,1,08,0.9,-3420.85,M,28.4,M,,,*63
$GPZDA,132262.71,11,11,2013,00,00*66
$GPGGA,132262.81,3527.745308,N,13847.121439,E,1,08,0.9,-3463.09,M,28.4,M,,,*6D
$GPZDA,132262.81,11,11,2013,00,00*69
$GPGGA,132262.91,3527.739792,N,13847.128125,E,1,08,0.9,-3505.51,M,28.4,M,,,*6D
$GPZDA,132262.91,11,11,2013,00,00*68
$GPGGA,132263.01,3527.734282,N,13847.134824,E,1,08,0.9,-3548.13,M,28.4,M,,,*66
$GPZDA,132263.01,11,11,2013,00,00*60
$GPGGA,132263.11,3527.728778,N,13847.141530,E,1,08,0.9,-3590.94,M,28.4,M,,,*6A
$GPZDA,132263.11,11,11,2013,00,00*61
$GPGGA,132263.21,3527.723273,N,13847.148233,E,1,08,0.9,-3633.95,M,28.4,M,,,*6A
$GPZDA,132263.21,11,11,2013,00,00*62
$GPGGA,132263.31,3527.717760,N,13847.154929,E,1,08,0.9,-3677.14,M,28.4,M,,,*6F
$GPZDA,132263.31,11,11,2013,00,00*63
$GPGGA,132263.41,3527.712226,N,13847.161613,E,1,08,0.9,-3720.53,M,28.4,M,,,*6A
$GPZDA,132263.41,11,11,2013,00,00*64
$GPGGA,132263.51,3527.706673,N,13847.168296,E,1,08,0.9,-3764.09,M,28.4,M,,,*65
$GPZDA,132263.51,11,11,2013,00,00*65
$GPGGA,132263.61,3527.701095,N,13847.174978,E,1,08,0.9,-3807.84,M,28.4,M,,,*66
$GPZDA,132263.61,11,11,2013,00,00*66
$GPGGA,132263.71,3527.695490,N,13847.181659,E,1,08,0.9,-3851.76,M,28.4,M,,,*62
$GPZDA,132263.71,11,11,2013,00,00*67
$GPGGA,132263.81,3527.689859,N,13847.188341,E,1,08,0.9,-3895.86,M,28.4,M,,,*6B
$GPZDA,132263.81,11,11,2013,00,00*68
$GPGGA,132263.91,3527.684200,N,13847.195026,E,1,08,0.9,-3940.12,M,28.4,M,,,*6B
$GPZDA,132263.91,11,11,2013,00,00*69
$GPGGA,132264.01,3527.678514,N,13847.201717,E,1,08,0.9,-3984.56,M,28.4,M,,,*67
$GPZDA,132264.01,11,11,2013,00,00*67
$GPGGA,132264.11,3527.672798,N,13847.208416,E,1,08,0.9,-4029.18,M,28.4,M,,,*62
$GPZDA,132264.11,11,11,2013,00,00*66
$GPGGA,132264.21,3527.667052,N,13847.215129,E,1,08,0.9,-4073.96,M,28.4,M,,,*68
$GPZDA,132264.21,11,11,2013,00,00*65
$GPGGA,132264.31,3527.661275,N,13847.221854,E,1,08,0.9,-4118.92,M,28.4,M,,,*64
$GPZDA,132264.31,11,11,2013,00,00*64
$GPGGA,132264.41,3527.655466,N,13847.228587,E,1,08,0.9,-4164.05,M,28.4,M,,,*6F
$GPZDA,132264.41,11,11,2013,00,00*63
$GPGGA,132264.51,3527.649632,N,13847.235317,E,1,08,0.9,-4209.36,M,28.4,M,,,*6B
$GPZDA,132264.51,11,11,2013,00,00*62
$GPGGA,132264.61,3527.643774,N,13847.242042,E,1,08,0.9,-4254.85,M,28.4,M,,,*62
$GPZDA,132264.61,11,11,2013,00,00*61
$GPGGA,132264.71,3527.637909,N,13847.248769,E,1,08,0.9,-4300.54,M,28.4,M,,,*6C
$GPZDA,132264.71,11,11,2013,00,00*60
$GPGGA,132264.81,3527.632037,N,13847.255511,E,1,08,0.9,-4346.41,M,28.4,M,,,*65
$GPZDA,132264.81,11,11,2013,00,00*6F
$GPGGA,132264.91,3527.626159,N,13847.262272,E,1,08,0.9,-4392.47,M,28.4,M,,,*61
$GPZDA,132264.91,11,11,2013,00,00*6E
$GPGGA,132265.01,3527.620263,N,13847.269062,E,1,08,0.9,-4438.70,M,28.4,M,,,*6E
$GPZDA,132265.01,11,11,2013,00,00*66
$GPGGA,132265.11,3527.614342,N,13847.275874,E,1,08,0.9,-4485.10,M,28.4,M,,,*68
$GPZDA,132265.11,11,11,2013,00,00*67
$GPGGA,132265.21,3527.608394,N,13847.282707,E,1,08,0.9,-4531.69,M,28.4,M,,,*6E
$GPZDA,132265.21,11,11,2013,00,00*64
$GPGGA,132265.31,3527.602419,N,13847.289560,E,1,08,0.9,-4578.45,M,28.4,M,,,*6C
$GPZDA,132265.31,11,11,2013,00,00*65
$GPGGA,132265.41,3527.596415,N,13847.296432,E,1,08,0.9,-4625.38,M,28.4,M,,,*60
$GPZDA,132265.41,11,11,2013,00,00*62
$GPGGA,132265.51,3527.590385,N,13847.303321,E,1,08,0.9,-4672.49,M,28.4,M,,,*65
$GPZDA,132265.51,11,11,2013,00,00*63
$GPGGA,132265.61,3527.584329,N,13847.310232,E,1,08,0.9,-4719.78,M,28.4,M,,,*6A
$GPZDA,132265.61,11,11,2013,00,00*60
$GPGGA,132265.71,3527.578246,N,13847.317164,E,1,08,0.9,-4767.24,M,28.4,M,,,*67
$GPZDA,132265.71,11,11,2013,00,00*61
$GPGGA,132265.81,3527.572131,N,13847.324103,E,1,08,0.9,-4814.88,M,28.4,M,,,*6D
$GPZDA,132265.81,11,11,2013,00,00*6E
$GPGGA,132265.91,3527.565982,N,13847.331047,E,1,08,0.9,-4862.69,M,28.4,M,,,*61
$GPZDA,132265.91,11,11,2013,00,00*6F
$GPGGA,132266.01,3527.559807,N,13847.337988,E,1,08,0.9,-4910.69,M,28.4,M,,,*60
$GPZDA,132266.01,11,11,2013,00,00*65
$GPGGA,132266.11,3527.553618,N,13847.344928,E,1,08,0.9,-4958.90,M,28.4,M,,,*6F
$GPZDA,132266.11,11,11,2013,00,00*64
$GPGGA,132266.21,3527.547419,N,13847.351873,E,1,08,0.9,-5007.31,M,28.4,M,,,*68
$GPZDA,132266.21,11,11,2013,00,00*67
$GPGGA,132266.31,3527.541213,N,13847.358835,E,1,08,0.9,-5055.92,M,28.4,M,,,*66
$GPZDA,132266.31,11,11,2013,00,00*66
$GPGGA,132266.41,3527.534994,N,13847.365812,E,1,08,0.9,-5104.72,M,28.4,M,,,*67
$GPZDA,132266.41,11,11,2013,00,00*61
$GPGGA,132266.51,3527.528761,N,13847.372808,E,1,08,0.9,-5153.70,M,28.4,M,,,*62
$GPZDA,132266.51,11,11,2013,00,00*60
$GPGGA,132266.61,3527.522519,N,13847.379834,E,1,08,0.9,-5202.86,M,28.4,M,,,*6C
$GPZDA,132266.61,11,11,2013,00,00*63
$GPGGA,132266.71,3527.516266,N,13847.386893,E,1,08,0.9,-5252.21,M,28.4,M,,,*60
$GPZDA,132266.71,11,11,2013,00,00*62
$GPGGA,132266.81,3527.509999,N,13847.393985,E,1,08,0.9,-5301.73,M,28.4,M,,,*68
$GPZDA,132266.81,11,11,2013,00,00*6D
$GPGGA,132266.91,3527.503702,N,13847.401099,E,1,08,0.9,-5351.44,M,28.4,M,,,*66
$GPZDA,132266.91,11,11,2013,00,00*6C
$GPGGA,132267.01,3527.497375,N,13847.408234,E,1,08,0.9,-5401.32,M,28.4,M,,,*69
$GPZDA,132267.01,11,11,2013,00,00*64
$GPGGA,132267.11,3527.491018,N,13847.415377,E,1,08,0.9,-5451.39,M,28.4,M,,,*62
$GPZDA,132267.11,11,11,2013,00,00*65
$GPGGA,132267.21,3527.484630,N,13847.422529,E,1,08,0.9,-5501.65,M,28.4,M,,,*6D
$GPZDA,132267.21,11,11,2013,00,00*66
$GPGGA,132267.31,3527.478218,N,13847.429689,E,1,08,0.9,-5552.10,M,28.4,M,,,*67
$GPZDA,132267.31,11,11,2013,00,00*67
$GPGGA,132267.41,3527.471776,N,13847.436856,E,1,08,0.9,-5602.75,M,28.4,M,,,*63
$GPZDA,132267.41,11,11,2013,00,00*60
$GPGGA,132267.51,3527.465302,N,13847.444030,E,1,08,0.9,-5653.58,M,28.4,M,,,*66
$GPZDA,132267.51,11,11,2013,00,00*61
$GPGGA,132267.61,3527.458791,N,13847.451221,E,1,08,0.9,-5704.59,M,28.4,M,,,*61
$GPZDA,132267.61,11,11,2013,00,00*62
$GPGGA,132267.71,3527.452244,N,13847.458436,E,1,08,0.9,-5755.77,M,28.4,M,,,*66
$GPZDA,132267.71,11,11,2013,00,00*63
$GPGGA,132267.81,3527.445663,N,13847.465680,E,1,08,0.9,-5807.13,M,28.4,M,,,*65
$GPZDA,132267.81,11,11,2013,00,00*6C
$GPGGA,132267.91,3527.439055,N,13847.472956,E,1,08,0.9,-5858.67,M,28.4,M,,,*67
$GPZDA,132267.91,11,11,2013,00,00*6D
$GPGGA,132268.01,3527.432423,N,13847.480267,E,1,08,0.9,-5910.39,M,28.4,M,,,*6D
$GPZDA,132268.01,11,11,2013,00,00*6B
$GPGGA,132268.11,3527.425771,N,13847.487612,E,1,08,0.9,-5962.29,M,28.4,M,,,*6B
$GPZDA,132268.11,11,11,2013,00,00*6A
$GPGGA,132268.21,3527.419106,N,13847.494993,E,1,08,0.9,-6014.38,M,28.4,M,,,*6E
$GPZDA,132268.21,11,11,2013,00,00*69
$GPGGA,132268.31,3527.412430,N,13847.502407,E,1,08,0.9,-6066.66,M,28.4,M,,,*64
$GPZDA,132268.31,11,11,2013,00,00*68
$GPGGA,132268.41,3527.405750,N,13847.509856,E,1,08,0.9,-6119.13,M,28.4,M,,,*68
$GPZDA,132268.41,11,11,2013,00,00*6F
$GPGGA,132268.51,3527.399067,N,13847.517335,E,1,08,0.9,-6171.79,M,28.4,M,,,*6B
$GPZDA,132268.51,11,11,2013,00,00*6E
$GPGGA,132268.61,3527.392383,N,13847.524842,E,1,08,0.9,-6224.64,M,28.4,M,,,*6E
$GPZDA,132268.61,11,11,2013,00,00*6D
$GPGGA,132268.71,3527.385703,N,13847.532369,E,1,08,0.9,-6277.69,M,28.4,M,,,*6B
$GPZDA,132268.71,11,11,2013,00,00*6C
$GPGGA,132268.81,3527.379027,N,13847.539914,E,1,08,0.9,-6330.94,M,28.4,M,,,*6D
$GPZDA,132268.81,11,11,2013,00,00*63
$GPGGA,132268.91,3527.372347,N,13847.547474,E,1,08,0.9,-6384.38,M,28.4,M,,,*69
$GPZDA,132268.91,11,11,2013,00,00*62
$GPGGA,132269.01,3527.365663,N,13847.555047,E,1,08,0.9,-6438.02,M,28.4,M,,,*6A
$GPZDA,132269.01,11,11,2013,00,00*6A
$GPGGA,132269.11,3527.358976,N,13847.562631,E,1,08,0.9,-6491.84,M,28.4,M,,,*60
$GPZDA,132269.11,11,11,2013,00,00*6B
$GPGGA,132269.21,3527.352280,N,13847.570225,E,1,08,0.9,-6545.85,M,28.4,M,,,*60
$GPZDA,132269.21,11,11,2013,00,00*68
$GPGGA,132269.31,3527.345575,N,13847.577826,E,1,08,0.9,-6600.05,M,28.4,M,,,*6E
$GPZDA,132269.31,11,11,2013,00,00*69
$GPGGA,132269.41,3527.338862,N,13847.585430,E,1,08,0.9,-6654.44,M,28.4,M,,,*6A
$GPZDA,132269.41,11,11,2013,00,00*6E
$GPGGA,132269.51,3527.332144,N,13847.593027,E,1,08,0.9,-6709.02,M,28.4,M,,,*62
$GPZDA,132269.51,11,11,2013,00,00*6F
$GPGGA,132269.61,3527.325421,N,13847.600618,E,1,08,0.9,-6763.80,M,28.4,M,,,*64
$GPZDA,132269.61,11,11,2013,00,00*6C
$GPGGA,132269.71,3527.318698,N,13847.608203,E,1,08,0.9,-6818.79,M,28.4,M,,,*68
$GPZDA,132269.71,11,11,2013,00,00*6D
$GPGGA,132269.81,3527.311970,N,13847.615793,E,1,08,0.9,-6873.99,M,28.4,M,,,*64
$GPZDA,132269.81,11,11,2013,00,00*62
$GPGGA,132269.91,3527.305239,N,13847.623389,E,1,08,0.9,-6929.40,M,28.4,M,,,*66
$GPZDA,132269.91,11,11,2013,00,00*63
$GPGGA,132270.01,3527.298496,N,13847.630999,E,1,08,0.9,-6985.03,M,28.4,M,,,*69
$GPZDA,132270.01,11,11,2013,00,00*62
$GPGGA,132270.11,3527.291741,N,13847.638624,E,1,08,0.9,-7040.86,M,28.4,M,,,*65
$GPZDA,132270.11,11,11,2013,00,00*63
$GPGGA,132270.21,3527.284976,N,13847.646261,E,1,08,0.9,-7096.90,M,28.4,M,,,*68
$GPZDA,132270.21,11,11,2013,00,00*60
$GPGGA,132270.31,3527.278197,N,13847.653909,E,1,08,0.9,-7153.13,M,28.4,M,,,*6F
$GPZDA,132270.31,11,11,2013,00,00*61
$GPGGA,132270.41,3527.271404,N,13847.661568,E,1,08,0.9,-7209.56,M,28.4,M,,,*69
$GPZDA,132270.41,11,11,2013,00,00*66
$GPGGA,132270.51,3527.264605,N,13847.669239,E,1,08,0.9,-7266.18,M,28.4,M,,,*67
$GPZDA,132270.51,11,11,2013,00,00*67
$GPGGA,132270.61,3527.257806,N,13847.676927,E,1,08,0.9,-7323.01,M,28.4,M,,,*6B
$GPZDA,132270.61,11,11,2013,00,00*64
